id,name,name_with_place,municipality,locality,county,tariff_zones,modes,lines,line_count,longitude,latitude
de:08136:1000,Aalen,Aalen,Aalen,Aalen,AA,,R-Bahn; SEV-Bus,"RE1, MEX13, MEX19, RE90, MEX90, XEV",6,10.0963609,48.8411658
de:08111:2480,Aalstraße,Aalstraße,Stuttgart,Stuttgart,S,"20, 1",Bus; Nachtbus,"54, N5",2,9.2216887,48.8444438
de:08118:5503,Abelstraße,Ludwigsburg Abelstraße,Ludwigsburg,Ludwigsburg,LB,"34, 2",Bus,"424, 429, 430",3,9.1831114,48.8982583
de:08125:4663,Abstatter Straße,Auenstein Abstatter Str.,Ilsfeld,Auenstein,HNLA,,Bus,646,1,9.2773788,49.0597649
de:08425:2362,Abzw. Breitingen,Breitingen Abzw. Breitingen,Breitingen,Breitingen,ULLA,,Bus,46,1,9.9916561,48.5172086
de:08127:27509,Abzw. Hohenegarten,Mainhardt Abzw. Hohenegarten,Mainhardt,Mainhardt,SHA,6,Bus,"372, 380",2,9.53478,49.0698102
de:08127:28273,Abzw. Hohenegarten B14,Mainh. Abzw. Hoheneg. B14,Mainhardt,Mainhardt,SHA,6,Bus,380,1,9.5351203,49.0696377
de:08136:3058,Abzw. Rehnenhau/Wetzgau,GD Abzw. Rehnenh./Wetzgau,Schwäbisch Gmünd,Schwäbisch Gmünd,AA,6,Bus,"266A, 268",2,9.7867691,48.8168986
de:08425:2474,Abzw. Vorderdenk.,Westerstett. Abzw. Vorderdenk.,Westerstetten,Westerstetten,ULLA,,Bus,46,1,9.9550556,48.5173024
de:08115:5941,Abzweig,Dätzingen Abzw.,Grafenau,Dätzingen,BB,"56, 57, 4",Bus; Nachtbus; Ruftaxi,"766, 768A, N75, RT766",4,8.8960232,48.7161917
de:08115:4853,Abzweig,Mönchberg Abzw.,Herrenberg,Mönchberg,BB,"68, 5",Bus; Nachtbus,"791, 794, N80",3,8.9089751,48.578913
de:08115:4206,Abzweig,Holzgerlingen Abzw.,Holzgerlingen,Holzgerlingen,BB,"58, 4",Bus,756,1,9.0059242,48.6363663
de:08116:4419,Abzweig,Schlattstall Abzw.,Lenningen,Schlattstall,ES,"61, 71, 5, 6",Bus,176,1,9.4971663,48.5300132
de:08119:3701,Abzweig,Rohrbronn Abzw.,Remshalden,Rohrbronn,WN,"42, 52, 3, 4",Bus,245A,1,9.4712013,48.808209
de:08119:5197,Abzweig,Hebsack Abzw.,Remshalden,Hebsack,WN,"42, 52, 3, 4",Bus,"217, 245, 333",3,9.4721864,48.8087265
de:08118:5752,Abzweig,Aurich Abzw.,Vaihingen an der Enz,Aurich,LB,"56, 66, 4, 5",Bus,"592, 592A",2,8.9429536,48.9168876
de:08115:4789,Abzweig,Neuweiler Abzw.,Weil im Schönbuch,Neuweiler (Weil im Schönbuch),BB,"58, 68, 4, 5",Bus; Nachtbus; Ruftaxi,"756, 760A, 761, 761A, N74, RT46",6,9.0545242,48.6359666
de:08119:5093,Abzweig Altersberg,Kaisersbach Abzw. Altersberg,Kaisersbach,Kaisersbach,WN,"72, 73, 5",Bus,375,1,9.6684555,48.9407775
de:08117:55,Abzweig Auendorf,Bad Ditzenbach Abzw. Auendorf,Bad Ditzenbach,Bad Ditzenbach,GP,7,Bus; Nachtbus; Ruftaxi,"961, 966, 966A, 981A, 982, N96, RTN99",7,9.6973084,48.5860961
de:08117:52,Abzweig Ave Maria,Deggingen Abzw. Ave Maria,Deggingen,Deggingen,GP,7,Bus; Nachtbus,"961, 966, 966A, 981A, 982, N96",6,9.7215034,48.5975116
de:08117:7607,Abzweig B10,Salach Abzw. B10,Salach,Salach,GP,6,Bus,972,1,9.7370962,48.6841471
de:08117:49,Abzweig B466,Reichenbach i.T. Abzw. B466,Deggingen,Reichenbach im Täle (Deggingen),GP,7,Bus; Nachtbus,"966, 966A, N96",3,9.7358789,48.6099294
de:08416:5226,Abzweig Bahnhof,Breitenholz Abzw. Bf,Ammerbuch,Breitenholz,TÜ,,Bus; Nachtbus; Ruftaxi,"791, N80, RT791",3,8.954865,48.5625192
de:08118:3306,Abzweig Bahnhof,Markgröningen Abzw. Bf,Markgröningen,Markgröningen,LB,"36, 46, 2, 3",Bus; Nachtbus,"531, 532, N53",3,9.0907212,48.9049057
de:08117:7654,Abzweig beim Kloster,Adelberg Abzw. beim Kloster,Adelberg,Adelberg,GP,"4, 5",Bus; Ruftaxi,"935, 935A, RT935",3,9.5987562,48.7592371
de:08117:330,Abzweig Degenfeld,Lauterstein Abzw. Degenfeld,Lauterstein,Lauterstein,GP,7,Bus,"972, 972A, N97",3,9.8825647,48.7099218
de:08117:57,Abzweig Drackenstein,Gosbach Abzw. Drackenstein,Bad Ditzenbach,Gosbach,GP,7,Bus; Linientaxi; Nachtbus; Ruftaxi,"961, 966, 966A, 967, 968, 981A, N96, RTN99, LT967",9,9.6793471,48.5789194
de:08135:1619,Abzweig Dudelhof,Steinheim a.A. Abzw. Dudelhof,Steinheim am Albuch,Steinheim am Albuch,HDH,,Bus,35,1,10.0082812,48.6705177
de:08119:5993,Abzweig Däfern,Lippoldsweiler Abzw. Däfern,Auenwald,Lippoldsweiler,WN,"63, 73, 5",Bus,382,1,9.530815,48.926297
de:08119:6942,Abzweig Eisenbachsee,Pfahlbronn Abzw. Eisenbachsee,Alfdorf,Pfahlbronn,WN,"72, 5",Bus,"266, 266A",2,9.6748775,48.850143
de:08119:5026,Abzweig Greuthof,Vorderst. Abzw. Greuthof,Alfdorf,Vordersteinenberg,WN,"72, 5",Bus,269,1,9.7263321,48.8720411
de:08117:1303,Abzweig Hohrein,Göppingen Abzw. Hohrein,Göppingen,Göppingen,GP,"5, 6",Bus,"933, 933A",2,9.7129399,48.7324904
de:08125:4679,Abzweig Jettenbach,Schmidhausen Abzw. Jettenbach,Beilstein,Schmidhausen (HN),HNLA,,Bus,644,1,9.3439189,49.0538576
de:08117:3328,Abzweig Kornberghalle,Dürnau Abzw. Kornberghalle,Dürnau,Dürnau,GP,5,Bus; Nachtbus,"981, 983, 983A, N98",4,9.6396036,48.6416555
de:08425:2541,Abzweig Lonsee,Urspring Abzw. Lonsee,Lonsee,Urspring,ULLA,,Bus; SEV-Bus,"MEX16E, 46",2,9.8939307,48.5468137
de:08119:4908,Abzweig Neufürstenhütte,Großerl. Abzw. Neufürstenhütte,Großerlach,Großerlach,WN,"73, 74, 5",Bus,"372, 380",2,9.5141505,49.0494383
de:08117:5016,Abzweig Oberwälden,Wangen Abzw. Oberwälden,Wangen,Wangen (GP),GP,5,Bus,"935, 935A",2,9.621472,48.7439734
de:08136:7209,Abzweig Pfersbach,Mutlangen Abzw. Pfersbach,Mutlangen,Mutlangen,AA,,Bus,"266A, 268",2,9.7904564,48.8366207
de:08115:4617,Abzweig Rauher Kapf,Böblingen Abzw. Rauher Kapf,Böblingen,Böblingen,BB,"48, 58, 3, 4",Bus; Nachtbus,"760, 760A, 761, X16, X76, N74",6,9.0404525,48.6672037
de:08117:7620,Abzweig Reichenbach,Donzdorf Abzw. Reichenbach,Donzdorf,Donzdorf,GP,"6, 7",Bus,"971, 972, 972A, N97",4,9.8005039,48.6866012
de:08119:5125,Abzweig Schmalenberg,Rud. Abzw. Schmalenberg,Rudersberg,Rudersberg,WN,"62, 72, 5",Bus,330,1,9.5959619,48.8906749
de:08117:60,Abzweig Schöntal,Wiesensteig Abzw. Schöntal,Wiesensteig,Wiesensteig,GP,"6, 7",Bus; Linientaxi; Nachtbus; Ruftaxi,"966, 966A, 967, 968, 981, 981A, N96, RTN99, LT967",9,9.6352886,48.5671388
de:08119:5124,Abzweig Steinbach,Rudersberg Abzw. Steinbach,Rudersberg,Rudersberg,WN,"62, 72, 5",Bus,330,1,9.5818818,48.8959444
de:08125:4444,Abzweig Tripsdrill,Cleebr. Abzw. Tripsdrill,Cleebronn,Cleebronn,HNLA,,Bus,666,1,9.054614,49.0403312
de:08117:3506,Abzweig Waltertal,Hohenstadt Abzw. Waltertal,Hohenstadt,Hohenstadt (GP),GP,7,Bus; Linientaxi,"961, 967, 968, LT967",4,9.6710298,48.550578
de:08117:7625,Abzweig Winzingen,Donzdorf Abzw. Winzingen,Donzdorf,Donzdorf,GP,"6, 7",Bus; Ruftaxi,"971, 972, 972A, N97, RT971",5,9.8205895,48.6965226
de:08116:4502,Abzweigung Baiereck,Thomashardt Abzw. Baiereck,Lichtenwald,Thomashardt,ES,"51, 52, 4",Bus,262,1,9.494274,48.7663246
de:08135:1604,Abzweigung Gussenstadt,Söhnstetten Abzw. Gussenstadt,Steinheim am Albuch,Söhnstetten,HDH,,Bus,35,1,9.9812253,48.6714169
de:08116:4399,Abzweigung Hepsisau,Weilheim (T) Abzw. Hepsisau,Weilheim an der Teck,Weilheim (T),ES,"71, 5, 6",Bus,"170, 174, 177, 177A",4,9.5503108,48.5937816
de:08135:1622,Abzweigung Heuchstetten,Steinheim a.A. Abzw. Heuchst.,Steinheim am Albuch,Steinheim am Albuch,HDH,,Bus,35,1,10.0359676,48.6679697
de:08116:6032,Achalmstr. (Ersatz),Nürtingen Achalmstr. (Ersatz),Nürtingen,Nürtingen,ES,"4, 5",Bus; Nachtbus,"183, N85",2,9.3476747,48.6146983
de:08115:3244,Achalmstraße,Holzgerlingen Achalmstraße,Holzgerlingen,Holzgerlingen,BB,"58, 4",Bus; Ruftaxi; SEV-Bus,"R46E, 751, 752, 756, 757, RT46",6,9.0094534,48.6444504
de:08116:4448,Achalmstraße,Nürtingen Achalmstraße,Nürtingen,Nürtingen,ES,"50, 60, 4, 5",Bus; Nachtbus,"183, N85",2,9.3505475,48.6143568
de:08116:4037,Adalbert-Stifter-Schule,Pliensauv. A.-Stifter-Schule,Esslingen am Neckar,Pliensauvorstadt,ES,"31, 2",Bus,"102, 103, 122, 130, 131",5,9.2896851,48.7356469
de:08119:3758,Adelsbach,Winnenden Adelsbach,Winnenden,Winnenden,WN,"43, 3",Bus,332,1,9.4043033,48.8829106
de:08119:5105,Adelstetten,Pfahlbronn Adelstetten,Alfdorf,Pfahlbronn,WN,"72, 5",Bus,"266A, 268",2,9.7585172,48.8423388
de:08117:105,Adenauer-/Weilerstr.,Geisl.(St) Adenauer-/W.-str.,Geislingen an der Steige,Geislingen (Steige),GP,7,Bus,957,1,9.8446258,48.6205404
de:08116:4143,Adenauerbrücke (oben),Oberessl. Adenauerbr. (oben),Esslingen am Neckar,Oberesslingen,ES,"31, 2",Bus; Nachtbus,"113, N13",2,9.3204041,48.7284524
de:08117:3307,Adler,Heiningen Adler,Heiningen,Heiningen (GP),GP,"5, 6",Bus; Nachtbus,"981, 981A, 983, 983A, 984, 984A, N94, N98",8,9.6468731,48.664681
de:08136:7201,Adler,Mutlangen Adler,Mutlangen,Mutlangen,AA,,Bus,"266A, 268",2,9.7970722,48.826036
de:08117:10,Adler/Altenstadt,Geisl.(St) Adler/Altenstadt,Geislingen an der Steige,Geislingen (Steige),GP,7,Bus,"951, 962",2,9.8202687,48.6274612
de:08136:3508,Adler/Apotheke,Straßdorf Adler/Apotheke,Schwäbisch Gmünd,Straßdorf,AA,6,Bus,932,1,9.7960221,48.7795344
de:08119:5242,Adlerbrücke,Plüderh. Adlerbrücke,Plüderhausen,Plüderhausen,WN,"62, 5",Bus,"243, 243A, 248",3,9.6040573,48.7906829
de:08118:5550,Adlerplatz,Hochberg Adlerplatz,Remseck am Neckar,Hochberg,LB,"32, 34, 2",Bus,"403, 433, 433A, 451",4,9.2761283,48.8885139
de:08119:2646,Adlerstraße,Fellbach Adlerstraße,Fellbach,Fellbach,WN,"20, 32, 1, 2",Bus,212,1,9.2696318,48.8165462
de:08115:7057,Adlerstraße,Herrenberg Adlerstraße,Herrenberg,Herrenberg,BB,"68, 5",Bus; Ruftaxi,"794, RT779",2,8.8556049,48.5884899
de:08117:6016,Adlerstraße,Ottenbach Adlerstr.,Ottenbach,Ottenbach,GP,6,Bus; Ruftaxi,"941, 941A, RT941",3,9.7519948,48.7351825
de:08116:6723,Adlerstraße,Wernau (N) Adlerstraße,Wernau (Neckar),Wernau (N),ES,"41, 51, 3, 4",Bus,"145, 146",2,9.4227514,48.6920799
de:08118:6813,Adlerweg,Gemmrigheim Adlerweg,Gemmrigheim,Gemmrigheim,LB,"65, 5",Bus,573,1,9.1677631,49.0226063
de:08111:201,Admiralweg,Admiralweg,Stuttgart,Stuttgart,S,"1, 2",Bus,98,1,9.1660336,48.8483684
de:08117:7632,Adolf-Kolping-Straße,Donzdorf Adolf-Kolping-Str.,Donzdorf,Donzdorf,GP,"6, 7",Bus,"970, 971, 972A",3,9.7948179,48.6851749
de:08115:7065,Affstätter Tal,Herrenberg Affstätter Tal,Herrenberg,Herrenberg,BB,"68, 5",Bus; Ruftaxi,"780, 783, RT780, RT783",4,8.8695232,48.6001519
de:08118:3343,Agentur für Arbeit,Bietigheim Agentur für Arbeit,Bietigheim-Bissingen,Bietigheim,LB,"45, 3",Bus,559,1,9.1474585,48.9486116
de:08118:5529,Agentur für Arbeit,Ludw. Agentur für Arbeit,Ludwigsburg,Ludwigsburg,LB,"34, 2",Bus,"421, 421A, 533",3,9.1959712,48.8908994
de:08115:6530,Agnesweg,Holzgerlingen Agnesweg,Holzgerlingen,Holzgerlingen,BB,4,Bus,756,1,9.0057893,48.6428679
de:08119:5234,Ahornstraße,Plüderh. Ahornstraße,Plüderhausen,Plüderhausen,WN,"62, 5",Bus,"243, 243A, 248",3,9.5933793,48.7957652
de:08119:7485,Aichelbach,Oppenweiler Aichelbach,Oppenweiler,Oppenweiler,WN,"63, 64, 5",Bus,391,1,9.4594714,48.9782544
de:08119:5241,Aichenbachhof,Plüderh. Aichenbachhof,Plüderhausen,Plüderhausen,WN,"62, 5",Bus,248,1,9.5834927,48.7906451
de:08119:5994,Aichholzhof,Unterw. Aichholzhof,Weissach im Tal,Unterweissach,WN,"53, 63, 4, 5",Bus,"381, 382, 384",3,9.4854273,48.9235118
de:08119:5065,Aichstrut,Welzheim Aichstrut,Welzheim,Welzheim,WN,"72, 5",Bus,263,1,9.650906,48.89919
de:08115:4779,Aidlinger Straße,Deufringen Aidlinger Str.,Aidlingen,Deufringen,BB,"57, 58, 4",Bus; Nachtbus; Ruftaxi,"743, 744, 763, 763A, 764, N75, RT763",7,8.8718483,48.6782551
de:08115:4764,Aidlinger Straße,Dagersheim Aidlinger Str.,Böblingen,Dagersheim,BB,"47, 48, 3",Bus,"707, 717, 722, 722A, 723, 743, 744, 763, 763A",9,8.9453538,48.6898864
de:08116:2893,Akademiegärten,Neuhausen (F) Akademiegärten,Neuhausen auf den Fildern,Neuhausen (F),ES,"2, 3",Bus,120,1,9.283542,48.6707813
de:08115:7067,Akazienweg,Herrenberg Akazienweg,Herrenberg,Herrenberg,BB,"68, 5",Bus; Ruftaxi,"780, RT780",2,8.850188,48.5959469
de:08117:1011,Alb-/Scheerstraße,Eisl.(F) Alb-/Scheerstr.,Eislingen/Fils,Eislingen (F),GP,6,Bus,940,1,9.7033664,48.6903652
de:08116:4021,Albblick,Zell Albblick,Esslingen am Neckar,Zell (Esslingen),ES,"31, 41, 2, 3",Bus,"102, 103",2,9.3587351,48.7302816
de:08111:6016,Albblick,Albblick,Stuttgart,Stuttgart,S,"20, 1",Bus; Nachtbus,"82, N10",2,9.0946197,48.7237524
de:08115:4680,Albert-Einstein-Gymnasium,Böbl. Albert-Einstein-Gymn.,Böblingen,Böblingen,BB,"48, 3",Bus,721A,1,9.0211562,48.6883054
de:08111:2476,Albert-Luthuli-Platz,Albert-Luthuli-Platz,Stuttgart,Stuttgart,S,"20, 1",Bus,57,1,9.1870853,48.8157659
de:08115:4547,Albert-Schweitzer-Gymnasium,Leonb. A.-Schweitzer-Gymnasium,Leonberg,Leonberg,BB,"46, 3",Bus; Nachtbus,"631, 631A, 632, 632A, 634, 642, 643, 651, 651A, 652, 653, 653A, 654, 660, N62, N63",16,9.0095519,48.7968366
de:08115:6816,Albert-Schweitzer-Straße,Höfingen A.-Schweitzer-Str.,Leonberg,Höfingen,BB,"36, 46, 2, 3",Bus,"651, 651A",2,9.0099917,48.8172671
de:08111:2189,Albert-Schäffle-Straße,Albert-Schäffle-Straße,Stuttgart,Stuttgart,S,"10, 1",Bus,45,1,9.2042531,48.7717102
de:08425:2687,Albhalle,Westerheim Albhalle,Westerheim,Westerheim,ULLA,,Bus,346,1,9.6270746,48.5110328
de:08236:3608,Albrecht-Dürer-Straße,Tiefenbr. Albrecht-Dürer-Str.,Tiefenbronn,Tiefenbronn,PFLA,,Bus,"652, 653A, 666",3,8.7934241,48.8256442
de:08115:4844,Albrecht-Haut-Gasse,Kuppingen A.-Haut-Gasse,Herrenberg,Kuppingen,BB,"68, 5",Bus; Nachtbus,"770, 773, 773A, N77",4,8.8427503,48.611791
de:08118:5537,Albrechtstraße,Ludwigsburg Albrechtstr.,Ludwigsburg,Ludwigsburg,LB,"34, 2",Bus,426,1,9.1760605,48.8944746
de:08111:6570,Albschule,Albschule,Stuttgart,Stuttgart,S,"20, 1",Bus; Nachtbus,"70, 71, 73, 74, 76, 77, N8, N9, N10",9,9.1654261,48.7428171
de:08116:5901,Albstraße,Großbettlingen Albstr.,Großbettlingen,Großbettlingen,ES,"60, 70, 5, 6",Bus; Nachtbus,"185A, 187A, 195, X19, N85",5,9.3143681,48.5910536
de:08118:5471,Albstraße,Kornwestheim Albstraße,Kornwestheim,Kornwestheim,LB,"34, 2",Bus,413,1,9.1859653,48.8515031
de:08116:7081,Albstraße,Neuffen Albstraße,Neuffen,Neuffen,ES,"70, 5",Bus,"179, 191",2,9.3821134,48.5506419
de:08116:4237,Albstraße,Reichenbach (F) Albstraße,Reichenbach an der Fils,Reichenbach (F),ES,"41, 51, 3, 4",Bus; Nachtbus,"142, 148, N11",3,9.4477737,48.7106986
de:08117:7013,Albstraße,Sparwiesen Albstraße,Uhingen,Sparwiesen,GP,"4, 5",Bus; Ruftaxi,"913, 913A, 920A, 922, 922A, RT922",6,9.5825122,48.6859775
de:08116:2929,Albstraße (Siedlerstube),Nürt. Albstr. (Siedlerstube),Nürtingen,Nürtingen,ES,"50, 60, 4, 5",Bus; Nachtbus,"180, 183, 193, N85",4,9.3445841,48.6189162
de:08416:3087,Aldi,Ergenzingen Aldi,Rottenburg am Neckar,Ergenzingen,TÜ,,Bus,7627,1,8.8245452,48.5033846
de:08118:5446,Aldinger Straße,Kornwestheim Aldinger Straße,Kornwestheim,Kornwestheim,LB,"34, 2",Bus,411,1,9.2020655,48.8669606
de:08118:5522,Aldinger Straße,Ludwigsburg Aldinger Str.,Ludwigsburg,Ludwigsburg,LB,"34, 2",Bus; Nachtbus,"427, 427A, 533, N43",4,9.2079996,48.8845478
de:08119:5546,Aldinger Straße,Hegnach Aldinger Straße,Waiblingen,Hegnach,WN,"32, 2",Bus; Nachtbus,"204, 431, N24",3,9.2939804,48.8564213
de:08119:2374,Alemannenstraße,Oeffingen Alemannenstr.,Fellbach,Oeffingen,WN,"20, 32, 1, 2",Bus; Nachtbus,"60, 214, N6",3,9.2627397,48.8395375
de:08116:2030,Alemannenstraße,Sielmingen Alemannenstraße,Filderstadt,Sielmingen,ES,"38, 39, 2",Bus,"816A, 817",2,9.2421378,48.680579
de:08115:3320,Alemannenstraße,Renningen Alemannenstraße,Renningen,Renningen,BB,"56, 4",Bus,637,1,8.9390627,48.7714717
de:08118:5551,Alexandrinenplatz,Hochberg Alexandrinenpl.,Remseck am Neckar,Hochberg,LB,"32, 34, 2",Bus; Nachtbus,"402, 402A, 403, 433, 433A, 451, N43",7,9.2800215,48.8873175
de:08119:3684,Alfred-Diebold-Weg,Waiblingen Alfred-Diebold-Weg,Waiblingen,Waiblingen,WN,"32, 2",Bus; Nachtbus,"207, N31",2,9.3360433,48.8394456
de:08118:6886,Allee/Alter Weg,Tamm Allee/Alter Weg,Tamm,Tamm,LB,"45, 3",Bus,"536, 536A",2,9.1299355,48.9250015
de:08118:6885,Allee/Brächterstraße,Tamm Allee/Brächterstr.,Tamm,Tamm,LB,"45, 3",Bus,"536, 536A",2,9.1340856,48.9256531
de:08118:7658,Alleenfeld,Freudental Alleenfeld,Freudental,Freudental,LB,"4, 5",Bus,567,1,9.0645129,49.0061025
de:08116:4047,Alleenstraße,Zell Alleenstraße,Esslingen am Neckar,Zell (Esslingen),ES,"31, 41, 2, 3",Bus,"102, 103, 104, 115, 138",5,9.352107,48.723279
de:08118:3567,Allmandklinge,Hohenhaslach Allmandklinge,Sachsenheim,Hohenhaslach,LB,"66, 5",Bus,"571, 571A, 572",3,9.0141854,49.0013542
de:08115:7029,Allmendstraße,Maichingen Allmendstr.,Sindelfingen,Maichingen,BB,"47, 48, 3",Bus,"704A, 705, 705A, 745, 748A",5,8.972272,48.7189057
de:08115:3185,Allmendstraße Nord,Maichingen Allmendstraße Nord,Sindelfingen,Maichingen,BB,"47, 48, 3",Bus,"702, 704",2,8.9714289,48.7198047
de:08119:5360,Allmersbach am Weinberg,Allmersbach am Weinberg,Aspach,Allmersbach am Weinberg (Aspach),WN,"54, 64, 4, 5",Bus,"367, 367A",2,9.3926087,48.9911446
de:08119:4922,Alm,Murrhardt Alm,Murrhardt,Murrhardt,WN,"73, 5",Bus; Ruftaxi,"373, 375, RT38",3,9.6029728,48.9745895
de:08111:6274,Alpseeweg,Alpseeweg,Stuttgart,Stuttgart,S,"20, 1",Bus; Nachtbus,"54, N5",2,9.2294181,48.833539
de:08116:1800,Altbach,Altbach,Altbach,Altbach,ES,"41, 3",R-Bahn; S-Bahn,"S1, RE6, MEX18",3,9.382434,48.7203135
de:08116:3800,Altbacher Hof,Altbach Altbacher Hof,Altbach,Altbach,ES,"41, 3",Bus,140,1,9.3800864,48.7279829
de:08116:4072,Altbacher Weg,Liebersbr. Altbacher Weg,Esslingen am Neckar,Liebersbronn,ES,"31, 2",Bus; Nachtbus,"106, N16",2,9.3889013,48.7376743
de:08115:4797,Altdorfer Straße,Hildrizhausen Altdorfer Str.,Hildrizhausen,Hildrizhausen,BB,"58, 4",Bus; Ruftaxi,"751, 752, RT46",3,8.9716846,48.6254551
de:08116:6879,Alte Bergstraße,Deizisau Alte Bergstr.,Deizisau,Deizisau,ES,"41, 3",Bus; Nachtbus,"143, N13",2,9.3799434,48.7108347
de:08119:5955,Alte Bundesstraße,Waiblingen Alte Bundesstr.,Waiblingen,Waiblingen,WN,"32, 2",Bus,216,1,9.3137007,48.8218299
de:08116:3807,Alte Heusteige,Zell Alte Heusteige,Esslingen am Neckar,Zell (Esslingen),ES,"31, 41, 2, 3",Bus,"102, 103, 114A, 115, 138, 140",6,9.35066,48.7262779
de:08119:2504,Alte Kelter,Fellbach Alte Kelter,Fellbach,Fellbach,WN,"20, 32, 1, 2",Bus; Nachtbus,"60, 207, N6",3,9.2716454,48.8011646
de:08111:2508,Alte Krone,Alte Krone,Stuttgart,Stuttgart,S,"20, 1",Bus,"60, 61",2,9.2528312,48.7791762
de:08118:5735,Alte Mühle,Häfnerhasl. Alte Mühle,Sachsenheim,Häfnerhaslach,LB,"66, 5",Bus,"571, 571A, 572",3,8.9359205,49.0188451
de:08116:3950,Alte Plochinger Steige,Kirchh.(T) Alte Ploch. Steige,Kirchheim unter Teck,Kirchheim (T),ES,"61, 5",Bus; Ruftaxi,"165A, RT17",2,9.4412794,48.6611208
de:08416:6353,Alte Post,Dettenhausen Alte Post,Dettenhausen,Dettenhausen,TÜ,"68, 5",Bus,"826, 826A, 828, X82",4,9.1011679,48.6076531
de:08115:6474,Alte Renninger Straße 19,Weil d. Stadt A. Renn. Str. 19,Weil der Stadt,Weil der Stadt,BB,"56, 4",Bus,665,1,8.8782151,48.7525668
de:08115:6473,Alte Renninger Straße 49,Weil d. Stadt A. Renn. Str. 49,Weil der Stadt,Weil der Stadt,BB,"56, 4",Bus,665,1,8.8812419,48.7550698
de:08115:6472,Alte Renninger Straße 73,Weil d. Stadt A. Renn. Str. 73,Weil der Stadt,Weil der Stadt,BB,"56, 4",Bus,665,1,8.8869354,48.7572337
de:08116:3992,Alte Schifffahrt,Mettingen Alte Schifffahrt,Esslingen am Neckar,Mettingen,ES,2,Bus,"101, 102",2,9.277963,48.7448571
de:08119:7545,Alte Schule,Neustadt Alte Schule,Waiblingen,Neustadt,WN,"32, 43, 2, 3",Bus; Nachtbus,"201, 201A, N24",3,9.3219327,48.8462122
de:08116:4104,Alte Steige,Liebersbronn Alte Steige,Esslingen am Neckar,Liebersbronn,ES,"31, 2",Bus; Nachtbus,"108, 138, N14",3,9.3425817,48.7495747
de:08118:2301,Alte Steige,Gerlingen Alte Steige,Gerlingen,Gerlingen,LB,"36, 2",Bus,638,1,9.0610099,48.7919827
de:08119:6991,Alte Steige,Schorndorf Alte Steige,Schorndorf,Schorndorf,WN,"52, 4",Bus,247,1,9.5369255,48.7949183
de:08119:4927,Alte Straße,Fornsbach Alte Straße,Murrhardt,Fornsbach,WN,"73, 5",Bus; SEV-Bus,"373, 375, RE90E, MEX90E",4,9.647357,48.9759494
de:08119:5147,Alte Waiblinger Straße,Neustadt A. Waiblinger Str.,Waiblingen,Neustadt,WN,"32, 43, 2, 3",Bus; Nachtbus,"201, 201A, N24",3,9.3187642,48.8450161
de:08119:3720,Alte Winnender Steige,Waibl. A. Winnender Steige,Waiblingen,Waiblingen,WN,"32, 2",Bus,208,1,9.3216571,48.8393609
de:08111:162,Altenbergstaffel,Altenbergstaffel,Stuttgart,Stuttgart,S,"10, 1",Nachtbus,"N8, N9, N10",3,9.181721,48.7595543
de:08111:2251,Altenburg,Altenburg,Stuttgart,Stuttgart,S,"20, 1",Bus,"52, 56",2,9.2100932,48.8116347
de:08416:5203,Altenheim,Entringen Altenheim,Ammerbuch,Entringen,TÜ,,Bus,791,1,8.9721841,48.5542064
de:08119:5432,Altenheim,Fellbach Altenheim,Fellbach,Fellbach,WN,"20, 32, 1, 2",Bus,215,1,9.2852044,48.8037485
de:08116:2056,Altenheim,Plattenhardt Altenheim,Filderstadt,Plattenhardt,ES,"38, 39, 2",Bus,"812, 813",2,9.1881819,48.6470299
de:08415:28304,Altenheim,Metzingen Altenheim,Metzingen,Metzingen,RT,,Bus,199,1,9.2907483,48.5429238
de:08115:4628,Altenheim Burghalde,Sindelf. Altenheim Burghalde,Sindelfingen,Sindelfingen,BB,"47, 48, 3",Bus; Nachtbus,"702, 708, N73",3,9.0175664,48.7145641
de:08118:3468,Altenzentrum,Besigheim Altenzentrum,Besigheim,Besigheim,LB,"55, 65, 4, 5",Bus,560,1,9.1572762,48.9966792
de:08115:3228,Altenzentrum,Holzgerlingen Altenzentrum,Holzgerlingen,Holzgerlingen,BB,"58, 4",Bus; Nachtbus,"751, 752, N74",3,9.0129271,48.643245
de:08117:3320,Alter Bahnhof,Heiningen Alter Bahnhof,Heiningen,Heiningen (GP),GP,"5, 6",Bus; Nachtbus,"981, 981A, 983, 983A, 984A, N98",6,9.6505311,48.657781
de:08115:6051,Alter Bahnhofsweg,Höfingen Alter Bahnhofsweg,Leonberg,Höfingen,BB,"36, 46, 2, 3",Bus,"651, 651A",2,9.0218787,48.8162492
de:08115:4794,Alter Friedhof,Altdorf Alter Friedhof,Altdorf,Altdorf (BB),BB,"58, 4",Bus; Nachtbus; Ruftaxi,"751, 752, N74, RT46",4,8.9949075,48.6305122
de:08115:4686,Alter Friedhof,Böblingen Alter Friedhof,Böblingen,Böblingen,BB,"48, 3",Bus; Nachtbus,"703, 723, N73",3,9.0208823,48.6829369
de:08115:4637,Alter Friedhof,Darmsheim Alter Friedhof,Sindelfingen,Darmsheim,BB,"47, 48, 3",Bus; Nachtbus,"717, 717A, 722A, 766, N75",5,8.9402275,48.6948028
de:08118:7839,Alter Friedhof,Ensingen Alter Friedhof,Vaihingen an der Enz,Ensingen,LB,"4, 5",Bus,591A,1,8.9497521,48.967966
de:08111:2428,Alter Gutshof,Alter Gutshof,Stuttgart,Stuttgart,S,"20, 1",Bus,57,1,9.1906075,48.8181701
de:08118:7435,Alter Oßweiler Weg,Ludw. Alter Oßweiler Weg,Ludwigsburg,Ludwigsburg,LB,"34, 2",Bus,"433, 433A",2,9.2084144,48.8957423
de:08116:4293,Alter Sportplatz,Wendlingen (N) Alter Sportpl.,Wendlingen am Neckar,Wendlingen (N),ES,"51, 4",Bus,"154, 155A",2,9.3922216,48.6699854
de:08118:6887,Alter Weg,Tamm Alter Weg,Tamm,Tamm,LB,"45, 3",Bus,"536, 536A",2,9.1285213,48.921658
de:08416:6362,Altes Rathaus,Dettenhausen Altes Rathaus,Dettenhausen,Dettenhausen,TÜ,"68, 5",Bus; Ruftaxi; SEV-Bus,"R46E, 826A, RT828, RT46",4,9.0976867,48.6096255
de:08115:4798,Altes Rathaus,Hildrizhausen Altes Rathaus,Hildrizhausen,Hildrizhausen,BB,"58, 4",Bus; Ruftaxi,"751, 752, RT46",3,8.9663537,48.625166
de:08115:4863,Altes Rathaus,Unterjett. Altes Rathaus,Jettingen,Unterjettingen,BB,"77, 5",Bus; Nachtbus,"774, 774A, X77, N70",4,8.7831466,48.564456
de:08116:5017,Altes Rathaus,Kemnat Altes Rathaus,Ostfildern,Kemnat,ES,"30, 2",Bus; Nachtbus,"130, 131, N22",3,9.2328294,48.7174495
de:08115:3180,Altes Rathaus,Maichingen Altes Rathaus,Sindelfingen,Maichingen,BB,"47, 48, 3",Bus,"702, 704A, 705, 748",4,8.9647258,48.7241912
de:08119:5156,Altes Rathaus,Bittenfeld Altes Rathaus,Waiblingen,Bittenfeld,WN,"32, 34, 43, 44, 2, 3",Bus; Nachtbus,"201, 201A, N24",3,9.3170242,48.8908633
de:08236:3700,Altes Schulhaus,Neuhausen Altes Schulhaus,Neuhausen,Neuhausen (Enzkreis),PFLA,,Bus,"663, 666A",2,8.7802265,48.791476
de:08118:6964,Altes Schulhaus,Ensingen Altes Schulhaus,Vaihingen an der Enz,Ensingen,LB,"56, 66, 4, 5",Bus,"590, 591A",2,8.9532189,48.9703773
de:08119:4969,Altfürstenhütte,Großerl. Altfürstenhütte,Großerlach,Großerlach,WN,"73, 74, 5",Bus; Ruftaxi,"372, 380, RT380",3,9.5067399,49.0699908
de:08235:1170,Althengstett,Althengstett,Althengstett,Althengstett,CW,"5, 6",Bus; R-Bahn,"RB76, 670, 670.2",3,8.7974297,48.726897
de:08416:5212,Altingen,Altingen,Ammerbuch,Altingen,TÜ,,Bus; Nachtbus; R-Bahn,"RB63, 776, 777, 794, N80",5,8.9087885,48.5619796
de:08115:2352,Altstadt,Leonberg Altstadt,Leonberg,Leonberg,BB,"46, 3",Bus; Nachtbus,"X2, 92, 635, 643, 650, 651, 651A, N63, X60",9,9.0165768,48.8014938
de:08116:4328,Altvaterweg,Kirchheim (T) Altvaterweg,Kirchheim unter Teck,Kirchheim (T),ES,"61, 5",Bus; Ruftaxi,"161, RT161",2,9.4584527,48.6328529
de:08116:4091,Alup,Köngen Alup,Köngen,Köngen,ES,"51, 4",Bus; Nachtbus,"151, N15",2,9.3631681,48.6777155
de:08111:2544,Am Bergwald,Am Bergwald,Stuttgart,Stuttgart,S,"1, 2",Bus; Nachtbus,"65, N7",2,9.2486078,48.7560839
de:08111:2453,Am Bismarckturm,Am Bismarckturm,Stuttgart,Stuttgart,S,"10, 1",Bus; Nachtbus,"43, 50, N2",3,9.1551362,48.7920918
de:08119:5384,Am Brenner,Lippoldsw. Am Brenner,Auenwald,Lippoldsweiler,WN,"63, 73, 5",Bus,"382, 382A",2,9.5213271,48.9390372
de:08119:3754,Am Bronnbach,Weiler Am Bronnbach,Schorndorf,Weiler (Schorndorf),WN,"52, 4",Bus,"245, 245A",2,9.4946878,48.7987044
de:08117:2018,Am Brünnele,Albershausen Am Brünnele,Albershausen,Albershausen,GP,"4, 5",Bus,916A,1,9.5645933,48.6915972
de:08119:5348,Am Dresselbach,Sachsenw. Am Dresselbach,Backnang,Sachsenweiler,WN,"53, 54, 4",Bus,"360, 362, 362A",3,9.4610594,48.9431069
de:08115:6532,Am Eschelbach,Holzgerlingen Am Eschelbach,Holzgerlingen,Holzgerlingen,BB,4,Bus,"756, 757",2,9.0172651,48.6310235
de:08111:2592,Am Feldrand,Am Feldrand,Stuttgart,Stuttgart,S,"20, 1",Bus; Nachtbus,"81, N1",2,9.0980417,48.7360602
de:08116:7849,Am Filswehr,Plochingen Am Filswehr,Plochingen,Plochingen,ES,3,Bus,159,1,9.4304978,48.7020958
de:08118:3582,Am Friedhof,Pleidelsheim Am Friedhof,Pleidelsheim,Pleidelsheim,LB,"55, 4",Bus,"444, 567, N44",3,9.1999821,48.9594756
de:08118:7088,Am Friedhof,Großsachsenheim Am Friedhof,Sachsenheim,Großsachsenheim,LB,"55, 56, 65, 66, 4, 5",Bus; Nachtbus,"554, N56",2,9.0677405,48.9574986
de:08117:9302,Am Galgenberg,Göppingen Am Galgenberg,Göppingen,Göppingen,GP,"5, 6",Bus,903,1,9.6774244,48.7015547
de:08425:2502,Am Kiesgraben,Halzhausen Am Kiesgraben,Lonsee,Halzhausen,ULLA,,Bus,46,1,9.9266178,48.5329938
de:08115:3188,Am Kindelberg,Renningen Am Kindelberg,Renningen,Renningen,BB,"56, 4",Bus,637,1,8.930166,48.7611795
de:08111:199,Am Kirchplatz,Am Kirchplatz,Stuttgart,Stuttgart,S,"1, 2",Bus,98,1,9.1598624,48.8486829
de:08111:2245,Am Kriegsbergturm,Am Kriegsbergturm,Stuttgart,Stuttgart,S,"10, 1",Bus; Nachtbus,"44, N2",2,9.1741011,48.7899783
de:08119:5160,Am Kätzenbach,Waiblingen Am Kätzenbach,Waiblingen,Waiblingen,WN,"32, 2",Bus; Nachtbus,"204, N21",2,9.3277464,48.8310168
de:08116:2082,Am Lindle,Bonlanden Am Lindle,Filderstadt,Bonlanden,ES,"38, 39, 2",Bus,"812, 813, 815, 816A, 818A",5,9.2148995,48.6526033
de:08118:3019,Am Maurener Berg,Ditzingen Am Maurener Berg,Ditzingen,Ditzingen,LB,"36, 46, 2, 3",Bus,"622, 624",2,9.0652706,48.8342172
de:08111:4067,Am Mittelkai,Am Mittelkai,Stuttgart,Stuttgart,S,"20, 31, 1, 2",Bus,103,1,9.2655866,48.7545982
de:08119:7569,Am Mühlbach,Schorndorf Am Mühlbach,Schorndorf,Schorndorf,WN,"52, 4",Bus,"234, 244, 244A",3,9.526911,48.8107821
de:08111:2615,Am Ochsenwald,Am Ochsenwald,Stuttgart,Stuttgart,S,"20, 38, 1, 2",Bus; Nachtbus,"82, N10",2,9.0914746,48.7207425
de:08118:6952,Am Pfaffenwald,Hochdorf (E) Am Pfaffenwald,Eberdingen,Hochdorf (Eberdingen),LB,"46, 56, 3, 4",Bus,595,1,8.9974479,48.8891876
de:08111:2596,Am Schattwald,Am Schattwald,Stuttgart,Stuttgart,S,"20, 36, 37, 1, 2",Bus; Nachtbus,"81, 84, 91, 92, 747, 748, X74, N1, N63",9,9.0837118,48.7517544
de:08115:4572,Am Schlossberg,Höfingen Am Schlossberg,Leonberg,Höfingen,BB,"36, 46, 2, 3",Bus,"650, 651, 651A",3,9.0129596,48.8152705
de:08116:4000,Am Schönen Rain,Esslingen (N) Am Schönen Rain,Esslingen am Neckar,Esslingen (N),ES,"31, 2",Bus,105,1,9.3148936,48.7471449
de:08118:3464,Am Sonnenberg,Ludwigsburg Am Sonnenberg,Ludwigsburg,Ludwigsburg,LB,"34, 2",Bus; Nachtbus,"427, 427A, 533, N43",4,9.2120261,48.8823194
de:08118:5691,Am Türmle,Untermberg Am Türmle,Bietigheim-Bissingen,Untermberg,LB,"45, 3",Bus,"541, 554, 554A",3,9.0769917,48.9443553
de:08118:5767,Am unteren Schlossberg,Neckarrems Am unt. Schlossberg,Remseck am Neckar,Neckarrems,LB,"32, 34, 2",Bus,214,1,9.2703314,48.8705522
de:08116:4386,Am Wasen,Ötlingen Am Wasen,Kirchheim unter Teck,Ötlingen,ES,"61, 5",Bus; Ruftaxi,"161, 163, 164, RT161, RT163",5,9.4197881,48.6575323
de:08416:2870,Am Weiher,Hailfingen Am Weiher,Rottenburg am Neckar,Hailfingen,TÜ,,Bus,7627,1,8.8678597,48.5254116
de:08116:4149,Am Wiesengrund,Berkh. Am Wiesengrund,Esslingen am Neckar,Berkheim,ES,"31, 2",Bus; Nachtbus,"113, 138, N13",3,9.3214661,48.7159499
de:08116:4307,Am Wiesenrain,Kirchheim (T) Am Wiesenrain,Kirchheim unter Teck,Kirchheim (T),ES,"61, 5",Bus; Ruftaxi,"163, 164, RT163",3,9.4747577,48.6527863
de:08119:5155,Am Zipfelbach,Bittenfeld Am Zipfelbach,Waiblingen,Bittenfeld,WN,"32, 34, 43, 44, 2, 3",Bus; Nachtbus,"201, 201A, N24",3,9.3127188,48.8892925
de:08111:192,Am Äußeren Graben,Am Äußeren Graben,Stuttgart,Stuttgart,S,"1, 2",Bus,98,1,9.1457471,48.8534855
de:08118:6811,Amselweg,Gemmrigheim Amselweg,Gemmrigheim,Gemmrigheim,LB,"65, 5",Bus,573,1,9.1630007,49.0213093
de:08115:7040,Amselweg,Herrenberg Amselweg,Herrenberg,Herrenberg,BB,"68, 5",Bus; Ruftaxi,"794, RT779",2,8.8614449,48.5893064
de:08119:5128,Amselweg,Welzheim Amselweg,Welzheim,Welzheim,WN,"72, 5",Bus,330,1,9.6252826,48.8776965
de:08115:4697,Amsterdamer Straße,Böblingen Amsterdamer Str.,Böblingen,Böblingen,BB,"48, 3",Bus,"703, 721, 721A",3,8.9997917,48.6735237
de:08425:2551,Amstetten,Amstetten,Amstetten,Amstetten,ULLA,,Bus; R-Bahn; SEV-Bus,"RE5, MEX16, MEX16E, 46",4,9.8729108,48.5783241
de:08111:4068,Amstetter Straße,Amstetter Straße,Stuttgart,Stuttgart,S,"20, 31, 1, 2",Bus,103,1,9.2570299,48.7567848
de:08116:4373,Amtsgericht,Nürtingen Amtsgericht,Nürtingen,Nürtingen,ES,"50, 60, 4, 5",Bus; Nachtbus; SEV-Bus,"RB65E, 180, 183, 185, 185A, 193, 195, N85",8,9.3428013,48.6240293
de:08115:3229,Amundsenstraße,Sindelfingen Amundsenstraße,Sindelfingen,Sindelfingen,BB,"47, 48, 3",Bus,"705, 705A",2,8.9864492,48.7085668
de:08116:3916,An der Autmut,Neckarhausen An der Autmut,Nürtingen,Neckarhausen,ES,"4, 5",Bus,189,1,9.3111192,48.616035
de:08118:3041,An der Lache,Ditz. An der Lache,Ditzingen,Ditzingen,LB,"2, 3",Bus,626,1,9.0729713,48.8280438
de:08118:5460,An der Wette,Kornwestheim An der Wette,Kornwestheim,Kornwestheim,LB,"34, 2",Bus; Nachtbus,"413, 414, 415, N47",4,9.1855767,48.8642907
de:08116:4100,Anhäuserstraße,Hegensberg Anhäuserstraße,Esslingen am Neckar,Hegensberg,ES,"31, 2",Bus; Nachtbus,"108, N14",2,9.340091,48.7432154
de:08116:7577,Anne-Frank-Schule,Wendl.(N) Anne-Frank-Schule,Wendlingen am Neckar,Wendlingen (N),ES,"51, 4",Bus,"155, 155A",2,9.380927,48.6701762
de:08115:6531,Anne-Frank-Straße,Holzgerlingen Anne-Frank-Str.,Holzgerlingen,Holzgerlingen,BB,4,Bus,756,1,9.0045541,48.6393249
de:08119:3686,Anton-Schmidt-Straße,Waiblingen Anton-Schmidt-Str.,Waiblingen,Waiblingen,WN,"32, 2",Bus,216,1,9.3238055,48.8218648
de:08118:5690,Antonia-Visconti-Straße,Bietigh. Antonia-Visconti-Str.,Bietigheim-Bissingen,Bietigheim,LB,"45, 3",Bus; Nachtbus,"554, 554A, 567, 572, N57",5,9.1197943,48.9638134
de:08111:35,Antwerpener Straße,Antwerpener Straße,Stuttgart,Stuttgart,S,"20, 1",Nachtbus; Stadtbahn,"U1, U16, N6",3,9.2429312,48.8084137
de:08135:130,AOK,Heidenheim AOK,Heidenheim an der Brenz,Heidenheim (Brenz),HDH,,Bus,35,1,10.1353677,48.6796491
de:08119:3605,AOK/Waldhorn,Backnang AOK/Waldhorn,Backnang,Backnang,WN,"53, 54, 4",Bus,"360, 361, 368, 390, N36",5,9.4337659,48.948797
de:08118:3483,Apfelweg,Kornwestheim Apfelweg,Kornwestheim,Kornwestheim,LB,2,Bus,415,1,9.1860518,48.8711061
de:08125:4673,Apotheke,Beilstein Apotheke,Beilstein,Beilstein,HNLA,"75, 6",Bus,"460, 460A, X46, N46, 644",5,9.3157683,49.039623
de:08116:4822,Apotheke,Ötlingen Apotheke,Kirchheim unter Teck,Ötlingen,ES,"61, 5",Bus; Ruftaxi,"161, X10, RT161",3,9.4237708,48.6565915
de:08118:3426,Apotheke,Neckarweihingen Apotheke,Ludwigsburg,Neckarweihingen,LB,"34, 44, 2, 3",Bus; Nachtbus,"421, 421A, 428, 430, 430A, N41",6,9.2225924,48.9097975
de:08115:3101,Arbeiterzentrum,Böblingen Arbeiterzentrum,Böblingen,Böblingen,BB,"48, 3",Bus,"705, 709, 709A, 721, 723, 725, 760, 760A, 761, X16, X76",11,9.0128165,48.6867779
de:08235:1210,Arche,Möttlingen Arche,Bad Liebenzell,Möttlingen,CW,6,Bus,"670.2, 880",2,8.7975997,48.7591262
de:08119:7093,ARGE/Post,Waiblingen ARGE/Post,Waiblingen,Waiblingen,WN,"32, 2",Bus,218,1,9.3104146,48.8255526
de:08111:218,Arndt-/Spittastraße,Arndt-/Spittastraße,Stuttgart,Stuttgart,S,"10, 1",Nachtbus; Stadtbahn,"U2, U9, N2",3,9.15077,48.7748682
de:08118:3408,Arsenalplatz,Ludwigsburg Arsenalplatz,Ludwigsburg,Ludwigsburg,LB,"34, 2",Bus; Nachtbus,"421, 421A, 422, 422A, 424, 425, 425A, 426, 427, 427A, 430, 430A, 431, 433, 433A, 443, 444, 533, N41, N42, N43",21,9.1883661,48.895633
de:08111:2532,Asang,Asang,Stuttgart,Stuttgart,S,"20, 31, 1, 2",Bus; Nachtbus,"62, 65, N7",3,9.2740935,48.7708545
de:08111:2573,Asemwald,Asemwald,Stuttgart,Stuttgart,S,"20, 1",Bus; Nachtbus,"71, 74, 76, N8",4,9.192406,48.726166
de:08119:5329,Aspacher Brücke,Backnang Aspacher Brücke,Backnang,Backnang,WN,"53, 54, 4",Bus,"360, 361, 362, 368, 370",5,9.4286096,48.9461277
de:08116:6772,Aspen,Hochdorf Aspen,Hochdorf,Hochdorf (ES),ES,"51, 61, 4, 5",Bus; Nachtbus,"144, 147, 165, 168, N11",5,9.4557199,48.6893551
de:08111:2511,Aspen,Aspen,Stuttgart,Stuttgart,S,"20, 1",Bus; Ruftaxi,"61, RT6",2,9.2673902,48.7868587
de:08111:2418,Aspenwaldstraße,Aspenwaldstraße,Stuttgart,Stuttgart,S,"20, 1",Bus,91,1,9.1259374,48.7736752
de:08118:7400,Asperg,Asperg,Asperg,Asperg,LB,"34, 36, 45, 46, 2, 3",Bus; R-Bahn; S-Bahn; SEV-Bus,"S5, RE8, MEX18, 433, 531, 532, 536A, S5E",8,9.1479775,48.9072561
de:08111:2459,Asperger Straße,Asperger Straße,Stuttgart,Stuttgart,S,"20, 34, 1, 2",Bus,"98, 412, 508",3,9.1554873,48.8526095
de:08119:5115,Asperglen,Asperglen,Rudersberg,Asperglen,WN,"62, 72, 5",Bus,"229, 230, 330",3,9.5273631,48.8590149
de:08111:5854,Auberlenweg,Auberlenweg,Stuttgart,Stuttgart,S,"20, 1",Bus,91,1,9.1300464,48.7737875
de:08117:7801,Auchterstraße,Schlierbach Auchterstr.,Schlierbach,Schlierbach,GP,"4, 5",Bus; Nachtbus,"914, 914A, 924, 924A, N91",5,9.5282213,48.6750168
de:08119:5383,Auenwaldhalle,Unterbrüden Auenwaldhalle,Auenwald,Unterbrüden,WN,"63, 73, 5",Bus,"365, 365A, 381, 383",4,9.4987477,48.9346861
de:08119:5976,Auerhahnstraße,Schorndorf Auerhahnstraße,Schorndorf,Schorndorf,WN,"52, 4",Bus,247,1,9.5428514,48.796662
de:08118:5715,Auf dem Kies,Besigheim Auf dem Kies,Besigheim,Besigheim,LB,"55, 65, 4, 5",Bus; Nachtbus; SEV-Bus,"560, 574, 574A, N58, MEX18E",5,9.144044,49.0000595
de:08116:4404,Auf dem Lerchenberg,Nürtingen Auf dem Lerchenberg,Nürtingen,Nürtingen,ES,"50, 60, 4, 5",Bus,"X4, 74, 166A, 167, 182A, 183, 185, 185A, 195",9,9.3360085,48.6163337
de:08118:3475,Auf dem Wasen,Ludwigsburg Auf dem Wasen,Ludwigsburg,Ludwigsburg,LB,"34, 2",Bus,426,1,9.2145097,48.8986985
de:08119:3545,Auf den Rüdern,Burgst.(M) Auf den Rüdern,Burgstetten,Burgstall (Burgstetten),WN,"54, 4",Bus; Nachtbus,"455, 477, N30",3,9.3632248,48.9339882
de:08111:2380,Auf der Gans,Auf der Gans,Stuttgart,Stuttgart,S,"20, 1",Bus,58,1,9.2420141,48.8186938
de:08111:2473,Auf der Steig,Auf der Steig,Stuttgart,Stuttgart,S,"20, 1",Bus; Nachtbus; Stadtbahn,"U12, 52, N4",3,9.2044702,48.8183171
de:08117:257,Aufhausen,Aufhausen,Geislingen an der Steige,Aufhausen (Geislingen),GP,7,Bus,350,1,9.7636777,48.5855758
de:08425:2620,Aufhauser Str.,Nellingen Aufhauser Str.,Nellingen,Nellingen (UL),ULLA,7,Bus,350,1,9.7865197,48.5429669
de:08111:33,Augsburger Platz,Augsburger Platz,Stuttgart,Stuttgart,S,"20, 1",Nachtbus; Stadtbahn,"U1, U16, N6",3,9.2325318,48.8059083
de:08118:3409,August-Bebel-Straße,Eglosheim A.-Bebel-Str.,Ludwigsburg,Eglosheim,LB,"34, 2",Bus; Nachtbus,"425, 425A, 426, N41",4,9.1764218,48.9041046
de:08119:2516,August-Brändle-Straße,Fellbach August-Brändle-Straße,Fellbach,Fellbach,WN,"20, 32, 1, 2",Bus,"60, 212",2,9.2799252,48.8091029
de:08115:4546,August-Lämmle-Schule,Ramtel August-Lämmle-Schule,Leonberg,Ramtel,BB,"46, 3",Bus,"631A, 632A",2,9.0262758,48.7889925
de:08236:3042,August-Lämmle-Str.,Mühlacker August-Lämmle-Str.,Mühlacker,Mühlacker,PFLA,,Bus,707,1,8.8514554,48.9502213
de:08111:2546,Augustinum,Augustinum,Stuttgart,Stuttgart,S,"20, 1",Bus; Nachtbus,"65, N7",2,9.2143998,48.739328
de:08118:6721,Aussiedlerhöfe,Hofen Aussiedlerhöfe,Bönnigheim,Hofen (Bönnigheim),LB,"65, 5",Bus; Nachtbus,"554, 554A, N57",3,9.1128144,49.0293994
de:08117:320,Aussiedlerhöfe,Stötten Aussiedlerhöfe,Geislingen an der Steige,Stötten,GP,7,Bus,"950, 950A",2,9.8518072,48.6498937
de:08118:5619,Aussiedlerhöfe,Großb. Aussiedlerhöfe,Großbottwar,Großbottwar,LB,"65, 5",Bus,"460A, 461",2,9.2822171,49.0057203
de:08117:3306,Aussiedlerhöfe,Heiningen Aussiedlerhöfe,Heiningen,Heiningen (GP),GP,"5, 6",Bus; Nachtbus,"981, 981A, 983, 983A, 984, 984A, N94, N98",8,9.6579396,48.6763176
de:08115:6889,Aussiedlerhöfe,Haslach Aussiedlerhöfe,Herrenberg,Haslach,BB,"68, 5",Bus,"774, 774A",2,8.8293938,48.591152
de:08118:3430,Aussiedlerhöfe,Möglingen Aussiedlerhöfe,Möglingen,Möglingen,LB,"34, 36, 2",Bus,508,1,9.1390009,48.8678095
de:08116:3947,Austraße,Kirchheim (T) Austraße,Kirchheim unter Teck,Kirchheim (T),ES,"61, 5",Bus; Ruftaxi,"164, 165, RT17",3,9.4506451,48.6518941
de:08119:3745,Austraße,Grunbach Austraße,Remshalden,Grunbach,WN,"42, 3",Bus,"217, 217A, 333",3,9.4185483,48.8139697
de:08111:242,Austraße,Austraße,Stuttgart,Stuttgart,S,1,Bus,59,1,9.2208759,48.823853
de:08118:5746,Austraße,Vaihingen (E) Austraße,Vaihingen an der Enz,Vaihingen (E),LB,"56, 66, 4, 5",Bus,"503, 595",2,8.9623737,48.9285224
de:08116:6864,Austraße,Wendlingen (N) Austraße,Wendlingen am Neckar,Wendlingen (N),ES,"51, 4",Bus,154,1,9.3921035,48.6722519
de:08117:47,Autalhalle,Bad Überkingen Autalhalle,Bad Überkingen,Bad Überkingen,GP,7,Bus; Nachtbus,"965, 965A, 966, 966A, N96",5,9.7903411,48.5995773
de:08118:3000,Autenstraße,Ditzingen Autenstraße,Ditzingen,Ditzingen,LB,"36, 46, 2, 3",Bus; Nachtbus,"535, 620, 622, 623, 623A, 624, 626, N65",8,9.0629313,48.8262154
de:08236:3420,Autobahnmeisterei,Heimsheim Autobahnmeisterei,Heimsheim,Heimsheim,PFLA,,Bus,"653, 653A, 660, 762",4,8.870234,48.831466
de:08235:9269,Autohaus Braun/Lidl,Wildberg Autohaus Braun/Lidl,Wildberg,Wildberg,CW,,Bus; Ruftaxi,"RT759, 759, 775",3,8.747927,48.6367664
de:08111:271,Auwiesen,Auwiesen,Stuttgart,Stuttgart,S,"20, 34, 1, 2",Bus; Nachtbus; Stadtbahn,"U12, U14, 54, N5",4,9.2248816,48.8394469
de:08118:5648,Auwiesenbrücke,Bietigheim Auwiesenbrücke,Bietigheim-Bissingen,Bietigheim,LB,"45, 3",Bus; Nachtbus; SEV-Bus,"554, 566, 567, 572, N52, N57, N58, MEX18E",8,9.1320133,48.9572718
de:08116:4310,Auwiesenschule,Neckartenzl. Auwiesenschule,Neckartenzlingen,Neckartenzlingen,ES,"59, 69, 4, 5",Bus,"187, 187A, 188A, 189, 808A",5,9.2437919,48.5873401
de:08115:3154,AWB,Böblingen AWB,Böblingen,Böblingen,BB,3,Bus,"708, 725",2,9.0605886,48.6916634
de:08136:7002,B 297/Hohe Linde,Kirneck B 297/Hohe Linde,Lorch,Kirneck,AA,5,Bus,X93,1,9.6871387,48.7823128
de:08117:7611,B10 Tobelkreuzung,Süßen B10 Tobelkreuzung,Süßen,Süßen,GP,"6, 7",Bus,"972, N97",2,9.7477914,48.6800314
de:08127:28102,B14,Mainhardt B14,Mainhardt,Mainhardt,SHA,6,Bus,"372, 380",2,9.5556454,49.0754664
de:08119:3622,B14,Hertmannsweiler B14,Winnenden,Hertmannsweiler,WN,"43, 3",Bus,332,1,9.4222679,48.8903096
de:08235:10156,B28,Berneck B28,Altensteig,Berneck,CW,"98, 8",Bus,X77,1,8.6255158,48.5963269
de:08117:1105,B297 Schützenhof,Wäschenb. B297 Schützenhof,Wäschenbeuren,Wäschenbeuren,GP,5,Bus,"931, 931A, 932, 932A",4,9.6739389,48.7507823
de:08117:2012,B297/Kirchheimer Straße,Uhingen B297/Kirchh. Str.,Uhingen,Uhingen,GP,"4, 5",Bus; Nachtbus,"911, 911A, 914, 914A, 916A, N91",6,9.5756721,48.7042578
de:08117:48,B466,Hausen (F) B466,Bad Überkingen,Hausen (Bad Überkingen),GP,7,Bus; Nachtbus,"966, 966A, N96",3,9.7628049,48.6050239
de:08119:5952,Baach,Schnait Baach,Weinstadt,Schnait,WN,"42, 3",Ruftaxi,RT206,1,9.4197389,48.7658112
de:08119:5217,Baacher Straße,Höfen Baacher Straße,Winnenden,Höfen (Winnenden),WN,"43, 3",Bus,"337, 337A",2,9.4266279,48.877075
de:08119:6664,Baacher Weg,Hertm. Baacher Weg,Winnenden,Hertmannsweiler,WN,"43, 3",Bus,"332, 337A",2,9.4253551,48.8861259
de:08117:7804,Bachbrücke,Schlierbach Bachbrücke,Schlierbach,Schlierbach,GP,"4, 5",Bus,"914, 914A",2,9.5138745,48.6728965
de:08111:6272,Bachhalde,Bachhalde,Stuttgart,Stuttgart,S,"20, 34, 1, 2",Bus,"53, 53E",2,9.2277563,48.845511
de:08115:4795,Bachstraße,Altdorf Bachstraße,Altdorf,Altdorf (BB),BB,"58, 4",Bus; Ruftaxi,"751, 752, RT46",3,8.99408,48.6296939
de:08118:5606,Bachstraße,Großbottwar Bachstraße,Großbottwar,Großbottwar,LB,"65, 5",Bus,"460A, 461, 464",3,9.2916866,49.0006342
de:08117:3020,Bachstraße,Schlat Bachstr.,Schlat,Schlat,GP,6,Bus; Nachtbus,"980, 980A, 984, 984A, N94",5,9.7048635,48.6516788
de:08115:4610,Bachstraße,Sindelfingen Bachstr.,Sindelfingen,Sindelfingen,BB,"47, 48, 3",Bus,"702, 704, 704A",3,8.994031,48.7082437
de:08115:5912,Bachstraße,Weissach Bachstraße,Weissach,Weissach (BB),BB,"56, 4",Bus; Nachtbus,"634, 634A, 636, N62",4,8.9224897,48.8445515
de:08115:4181,Backhaus,Dachtel Backhaus,Aidlingen,Dachtel,BB,"57, 58, 67, 4, 5",Bus; Nachtbus; Ruftaxi,"744, 763, 763A, 764, N75, RT763",6,8.8550105,48.6781004
de:08235:1195,Backhaus,Neuhengstett Backhaus,Althengstett,Neuhengstett,CW,"5, 6",Bus,670.2,1,8.7799699,48.7379348
de:08117:3316,Backhaus,Eschenbach Backhaus,Eschenbach,Eschenbach,GP,"5, 6",Bus,984A,1,9.6701329,48.6527585
de:08125:4651,Backhaus,Ilsfeld Backhaus,Ilsfeld,Ilsfeld,HNLA,,Bus,646,1,9.2497614,49.0559706
de:08119:4947,Backhaus,Oberberken Backhaus,Schorndorf,Oberberken,WN,"52, 4",Bus,"241, 935A",2,9.555372,48.776801
de:08119:5170,Backhaus,Großheppach Backhaus,Weinstadt,Großheppach,WN,"42, 3",Bus,209,1,9.3852852,48.8193554
de:08119:5311,Backhäusle,Hanweiler Backhäusle,Winnenden,Hanweiler,WN,"43, 3",Bus,"332, 334",2,9.3860239,48.8534337
de:08119:7600,Backnang,Backnang,Backnang,Backnang,WN,"53, 54, 4",Bus; Nachtbus; R-Bahn; S-Bahn; SEV-Bus,"S3, S4, MEX19, RE90, MEX90, 359, 360, 361, 362, 363, 365, 366, 367, 368, 369, 370, 381, 382, 383, 384, 390, 393, 455, 457, 467, N30, N36, S3E, S4E, XEV, RE90E, MEX90E",32,9.4259861,48.9426484
de:08119:5035,Backnanger Straße,Rudersberg Backnanger Str.,Rudersberg,Rudersberg,WN,"62, 72, 5",Bus,393,1,9.5275767,48.8857839
de:08119:3634,Backnanger Straße,Winnenden Backnanger Str.,Winnenden,Winnenden,WN,"43, 3",Bus,332,1,9.4009469,48.8792175
de:08117:46,Bad,Bad Überkingen Bad,Bad Überkingen,Bad Überkingen,GP,7,Bus; Nachtbus,"965, 965A, 966, 966A, N96",5,9.7964576,48.6005513
de:08116:7102,Bad,Leinfelden Bad,Leinfelden-Echterdingen,Leinfelden,ES,"38, 2",Bus; Nachtbus,"818, 818A, 826, 826A, N18",5,9.1386445,48.6998416
de:08111:6333,Bad Cannstatt,Bad Cannstatt,Stuttgart,Stuttgart,S,"20, 1",Bus; R-Bahn; S-Bahn; SEV-Bus,"S1, S2, S3, RE1, RE5, RE6, MEX12, MEX13, MEX16, MEX18, MEX19, RE90, MEX90, 45, S1E, S2E, S2X, MEX16E, RE90E, MEX90E",20,9.2174686,48.8012798
de:08111:6332,Bad Cannstatt Wilhelmsplatz,Bad Cannstatt Wilhelmsplatz,Stuttgart,Stuttgart,S,"20, 1",Nachtbus; SEV-Bus; Stadtbahn,"U1, U2, U13, U16, U19, N4, N5, N6, S1E, S2E, XEV, MEX16E, RE90E",13,9.2157599,48.8027667
de:08125:519,Bad Friedrichshall-Jagstfeld,Bad Friedrichshall-Jagstfeld,Bad Friedrichshall,Bad Friedrichshall,HNLA,,R-Bahn,"RE8, MEX12, MEX18",3,9.199941,49.2313721
de:08125:1120,Bad Friedrichshall-Kochendorf,Bad Friedrichshall-Kochendorf,Bad Friedrichshall,Bad Friedrichshall,HNLA,,R-Bahn,"RE8, MEX12, MEX18",3,9.2108712,49.2187373
de:08235:4150,Bad Liebenzell,Bad Liebenzell,Bad Liebenzell,Bad Liebenzell,CW,,Bus,880,1,8.7341448,48.7732236
de:08415:28129,Bad Urach,Bad Urach,Bad Urach,Bad Urach,RT,,R-Bahn; SEV-Bus,"RB63, RB63E",2,9.3965619,48.4912405
de:08235:8960,Bad Wildbad,Bad Wildbad,Bad Wildbad,Bad Wildbad,CW,,R-Bahn,MEX17,1,8.5510724,48.7555082
de:08117:2108,Bad-/Gruibinger Straße,Boll Bad-/Gruibinger Straße,Bad Boll,Bad Boll,GP,5,Bus; Nachtbus; Ruftaxi,"920, 920A, 924, N98, RT924",5,9.6135418,48.6376158
de:08118:3594,Bad-Berka-Weg,Marbach (N) Bad-Berka-Weg,Marbach am Neckar,Marbach (N),LB,"44, 55, 3, 4",Bus; Nachtbus,"457, N40",2,9.2603019,48.9314075
de:08118:5701,Badepark,Bietigheim Badepark,Bietigheim-Bissingen,Bietigheim,LB,"45, 3",Bus,"551A, 554A, 556",3,9.1215512,48.9506562
de:08115:4626,Badezentrum,Sindelf. Badezentrum,Sindelfingen,Sindelfingen,BB,"47, 48, 3",Bus,"702, 708",2,9.0186549,48.7181159
de:08116:3898,Badstraße,Altbach Badstraße,Altbach,Altbach,ES,"41, 3",Bus,140,1,9.3733212,48.7248487
de:08119:4982,Badstraße,Lippoldsw. Badstraße,Auenwald,Lippoldsweiler,WN,"63, 73, 5",Bus,"366, 381, 382, 382A",4,9.5230155,48.9373391
de:08117:2109,Badstraße/Eichhalde,Boll Badstr./Eichhalde,Bad Boll,Bad Boll,GP,5,Bus; Nachtbus; Ruftaxi,"920, 920A, 924, N98, RT924",5,9.6099878,48.6376887
de:08116:4361,Badwiesen,Kirchheim (T) Badwiesen,Kirchheim unter Teck,Kirchheim (T),ES,"61, 5",Bus; Ruftaxi,"163, 164, RT163",3,9.436692,48.6470919
de:08115:4761,Bahnbrücke,Bondorf Bahnbrücke,Bondorf,Bondorf,BB,"77, 5",Bus; Nachtbus,"N70, 7627, X27",3,8.8305151,48.51905
de:08117:7619,Bahnhof,Donzdorf Bahnhof,Donzdorf,Donzdorf,GP,"6, 7",Bus; Ruftaxi,"970, 971, 972, 972A, RT971",5,9.8044748,48.6843614
de:08116:2006,Bahnhof,Bernhausen Bahnhof,Filderstadt,Bernhausen,ES,"38, 39, 2",Bus; Nachtbus; SEV-Bus,"X4, 74, 76, 805, 807, 808, 809, 809A, 811, 812, 813, 814, 815, 816, 816A, 817, 818, N89, S2E, X3",20,9.2182062,48.6765533
de:08116:4324,Bahnhof,Holzmaden Bf,Holzmaden,Holzmaden,ES,"71, 5",Bus,"170, 171, 173, 173A, 175, 175A, 177, 177A",8,9.51104,48.6316331
de:08235:10165,Bahnhof,Rohrdorf Bf,Rohrdorf,Rohrdorf (CW),CW,"88, 7",Bus,X77,1,8.6905793,48.5715111
de:08118:5602,Bahnhof,Steinheim (M) Bf,Steinheim an der Murr,Steinheim (M),LB,"55, 65, 4, 5",Bus,"444, 460, 460A, 461, N46",5,9.2760732,48.9674561
de:08118:7401,Bahnhof (Arena),Ludwigsburg Bahnhof (Arena),Ludwigsburg,Ludwigsburg,LB,"34, 2",Bus; SEV-Bus,"420, 532, S4E, S5E, MEX17E",5,9.1837026,48.8921336
de:08119:7602,Bahnhof (Dammstraße),Waiblingen Bahnhof (Dammstr.),Waiblingen,Waiblingen,WN,2,SEV-Bus,"S2E, S2X, XEV, RE90E",4,9.3027467,48.8277492
de:08116:3326,Bahnhof (Süd),Oberessl. Bahnhof (Süd),Esslingen am Neckar,Oberesslingen,ES,"31, 2",Bus,"104, 121",2,9.3262448,48.7299017
de:08116:3993,Bahnhof (Trollingerweg),Mettingen Bf (Trollingerweg),Esslingen am Neckar,Mettingen,ES,2,Bus,"101, 115",2,9.2770279,48.7478898
de:08118:2631,Bahnhof (Warthstraße),Korntal Bf (Warthstr.),Korntal-Münchingen,Korntal,LB,"20, 36, 1, 2",Bus,"90, 612",2,9.1211701,48.8275804
de:08136:7042,Bahnhof/B297,Lorch Bahnhof/B297,Lorch,Lorch,AA,5,Bus,X93,1,9.6937567,48.7984415
de:08425:2461,Bahnhofstraße,Beimerstetten Bahnhofstr.,Beimerstetten,Beimerstetten,ULLA,,Bus; SEV-Bus,"MEX16E, 46",2,9.984338,48.4818481
de:08416:6352,Bahnhofstraße,Dettenhausen Bahnhofstr.,Dettenhausen,Dettenhausen,TÜ,"68, 5",Bus; Ruftaxi; SEV-Bus,"R46E, 826, 826A, 827, 828, X82, RT828",7,9.0978,48.6051291
de:08118:3551,Bahnhofstraße,Erdmannhausen Bahnhofstr.,Erdmannhausen,Erdmannhausen,LB,"44, 55, 3, 4",Bus; Nachtbus,"456A, N40",2,9.2983298,48.9459993
de:08117:17,Bahnhofstraße,Gingen (F) Bahnhofstr.,Gingen an der Fils,Gingen (F),GP,7,Bus; SEV-Bus,"951, 951A, MEX16E",3,9.7800138,48.6570122
de:08118:4558,Bahnhofstraße,Hemmingen Bahnhofstr.,Hemmingen,Hemmingen,LB,"46, 2, 3",Bus,"502, 531A, 534",3,9.0302704,48.8670626
de:08125:34692,Bahnhofstraße,Ilsfeld Bahnhofstr.,Ilsfeld,Ilsfeld,HNLA,,Bus,646,1,9.2445393,49.0540755
de:08117:14,Bahnhofstraße,Kuchen Bahnhofstraße,Kuchen,Kuchen (F),GP,7,Bus,"951, 951A",2,9.8003004,48.6386358
de:08116:4283,Bahnhofstraße,Unterlenningen Bahnhofstraße,Lenningen,Unterlenningen,ES,"61, 71, 5, 6",Bus,"177, 177A",2,9.4606097,48.564329
de:08119:5321,Bahnhofstraße,Nellmersbach Bahnhofstr.,Leutenbach,Nellmersbach,WN,"43, 3",Bus,335,1,9.4100011,48.9027183
de:08118:3432,Bahnhofstraße,Möglingen Bahnhofstr.,Möglingen,Möglingen,LB,"34, 36, 2",Bus,"508, 533, 533A, 536",4,9.125902,48.8894329
de:08117:59,Bahnhofstraße,Mühlhausen i.T. Bahnhofstr.,Mühlhausen im Täle,Mühlhausen im Täle,GP,7,Bus; Ruftaxi,"966A, 981, 981A, RTN99",4,9.6585355,48.5793282
de:08116:2901,Bahnhofstraße,Neuhausen (F) Bahnhofstr.,Neuhausen auf den Fildern,Neuhausen (F),ES,"30, 39, 2, 3",Bus; Nachtbus,"120, 121, 816, 816A, 817, N19",6,9.277766,48.684545
de:08119:5245,Bahnhofstraße,Plüderh. Bahnhofstraße,Plüderhausen,Plüderhausen,WN,"62, 5",Bus,243A,1,9.5975594,48.7970385
de:08115:4806,Bahnhofstraße,Schönaich Bahnhofstraße,Schönaich,Schönaich,BB,"58, 4",Bus; Ruftaxi,"734, 760, 760A, 761, 761A, RT760",6,9.0592761,48.6615571
de:08118:7417,Bahnhofstraße,Sersheim Bahnhofstr.,Sersheim,Sersheim,LB,"56, 66, 4, 5",Bus; SEV-Bus,"566, 578, MEX17E",3,9.016112,48.9592441
de:08116:4326,Bahnhofstraße,Weilheim (T) Bahnhofstraße,Weilheim an der Teck,Weilheim (T),ES,"71, 5, 6",Bus,"920, 920A",2,9.5397528,48.6181748
de:08119:6837,Bahnhofstraße,Endersbach Bahnhofstr.,Weinstadt,Endersbach,WN,"42, 3",Bus; Nachtbus,"204, N21",2,9.3674162,48.813362
de:08115:4533,Bahnhofstraße,Weissach Bahnhofstraße,Weissach,Weissach (BB),BB,"56, 4",Bus; Nachtbus,"620, 634, 634A, 636, N62",5,8.9321466,48.8465088
de:08117:1107,Bahnhofstraße,Wäschenbeuren Bahnhofstr.,Wäschenbeuren,Wäschenbeuren,GP,5,Bus,931A,1,9.6888776,48.7572674
de:08119:4083,Bahnunterführung,Winterbach Bahnunterf.,Winterbach,Winterbach,WN,"52, 4",Bus,"106, 245, 917",3,9.4792056,48.7981225
de:08119:3748,Bahnüberführung,Geradst. Bahnüberführung,Remshalden,Geradstetten,WN,"42, 52, 3, 4",Bus,217,1,9.4392775,48.8053048
de:08119:3685,Bajastraße,Waiblingen Bajastraße,Waiblingen,Waiblingen,WN,"32, 2",Bus; Nachtbus,"207, N31",2,9.3398348,48.8380857
de:08116:4438,Balzholz Rathaus,Beuren Balzholz Rathaus,Beuren,Beuren (ES),ES,"70, 71, 5",Bus,"179, 180, 199",3,9.3902154,48.5667297
de:08116:5864,Balzholzer Straße,Beuren Balzholzer Str.,Beuren,Beuren (ES),ES,"70, 71, 5",Bus,"177, 178, 179, 180, 199",5,9.3986541,48.5698482
de:08118:4891,Bank,Neckargröningen Bank,Remseck am Neckar,Neckargröningen,LB,"32, 34, 2",Bus,"402A, 403, 431",3,9.2707636,48.8773673
de:08118:5888,Bannhalde,Großsachsh. Bannhalde,Sachsenheim,Großsachsenheim,LB,"55, 56, 65, 66, 4, 5",Bus,571,1,9.0488365,48.9656371
de:08116:4506,Bannmühle,Reichenbach (F) Bannmühle,Reichenbach an der Fils,Reichenbach (F),ES,"41, 51, 3, 4",Bus; Nachtbus,"262, N11",2,9.4655734,48.7253487
de:08119:6691,Banrain,Urbach Banrain,Urbach,Urbach,WN,"52, 62, 4, 5",Bus,"243A, 249",2,9.5745257,48.8229369
de:08117:9401,Barbarossa-Thermen,Göppingen Barbarossa-Thermen,Göppingen,Göppingen,GP,"5, 6",Bus,"905, 934A",2,9.6488133,48.7100107
de:08117:1050,Barbarossasee,Göppingen Barbarossasee,Göppingen,Göppingen,GP,"5, 6",Bus,901,1,9.668552,48.7065974
de:08117:4917,Bart. Lorcher-/Lerchbg. Str,Göpp. Bart. Lorcher-/Lbg S.,Göppingen,Bartenbach (Göppingen),GP,5,Bus; Nachtbus; Ruftaxi,"904, 931, 931A, 932A, 934, 934A, 935, 935A, N90, N93, X93, RT904",12,9.6529977,48.7214974
de:08117:4918,Bartenb. Brunnenstr.,Göpp. Bartenb. Brunnenstr.,Göppingen,Bartenbach (Göppingen),GP,5,Bus; Ruftaxi,"904, RT904",2,9.6560762,48.7241237
de:08117:4013,Bartenb. Im Engenlauch,Göpp. Bartenb. Im Engenlauch,Göppingen,Bartenbach (Göppingen),GP,5,Bus,"931A, 932A, 934, 934A, 935A",5,9.647065,48.7241298
de:08117:4912,Bartenb. Lerchenbg. Str./Hofh.,Göpp. Bartenb. LbgStr./Hofh.,Göppingen,Bartenbach (Göppingen),GP,5,Bus; Ruftaxi,"904, RT904",2,9.6616297,48.7247394
de:08117:4914,Bartenb. Lerchenbg. Str./TV sp,Göpp. Bartenb. Lbg Str./TV S.,Göppingen,Bartenbach (Göppingen),GP,5,Bus; Ruftaxi,"904, RT904",2,9.6668147,48.7252311
de:08117:4011,Bartenb. Lerchenbg. Str./Voba,Göpp. Bartenb. Lbgstr./Voba,Göppingen,Bartenbach (Göppingen),GP,5,Bus; Ruftaxi,"904, 934, 934A, RT904",4,9.6527066,48.7231627
de:08117:4012,Bartenb. Schelmenstr./Friedhof,Göpp. Bartenb. Schelmenstr./F.,Göppingen,Bartenbach (Göppingen),GP,5,Bus,"934, 934A",2,9.6512979,48.7245825
de:08117:4014,Bartenb. Wilhelmshilfe,Göpp. Bartenb. Wilhelmshilfe,Göppingen,Bartenbach (Göppingen),GP,5,Bus; Nachtbus,"931, 931A, 934, 934A, 935, 935A, N90, N93",8,9.6457657,48.7234986
de:08119:4912,Bartenbach,Sulzb.(M) Bartenbach,Sulzbach an der Murr,Sulzbach (M),WN,"63, 64, 73, 74, 5",Bus; Ruftaxi,"372, 380A, 390, 390A, RT380",5,9.5349348,48.9963087
de:08117:4008,Bartenbach Rotes Reusch,Göpp. Bartenb. Rotes Reusch,Göppingen,Bartenbach (Göppingen),GP,5,Bus; Nachtbus,"904, 931, 931A, 932A, 934, 934A, 935, 935A, N93",9,9.6496041,48.718657
de:08115:5929,Bartenweg,Sindelfingen Bartenweg,Sindelfingen,Sindelfingen,BB,"47, 48, 3",Bus,"702, 704, 704A",3,8.9787114,48.7246532
de:08118:3020,Bauern-/Breslauer Straße,Ditz. Bauern-/Breslauer Straße,Ditzingen,Ditzingen,LB,"36, 46, 2, 3",Bus,"622, 624",2,9.0646963,48.832464
de:08116:2941,Bauhof,Nürtingen Bauhof,Nürtingen,Nürtingen,ES,"50, 60, 4, 5",Bus,"184, 186",2,9.3391823,48.6385811
de:08235:1120,Bauknecht,Calw Bauknecht,Calw,Calw,CW,6,Bus,"744, 763, 770, 670, 670.2",5,8.7623271,48.7081977
de:08117:6019,Baumgarten/Ziegelstraße,Salach Baumgarten/Ziegelstr.,Salach,Salach,GP,6,Bus,"941, 941A",2,9.7455975,48.697905
de:08111:2434,Baumgartenweg,Baumgartenweg,Stuttgart,Stuttgart,S,"20, 1",Bus,66,1,9.2181508,48.7483943
de:08415:29046,Baumsatz/Gewerbegebiet,Pliezh. Baumsatz/Gew.gebiet,Pliezhausen,Pliezhausen,RT,,Bus,X3,1,9.1965326,48.5645983
de:08119:7570,Baumwasenstraße,Schorndorf Baumwasenstraße,Schorndorf,Schorndorf,WN,"52, 4",Bus,246,1,9.5113873,48.8051869
de:08119:5055,Bausche,Welzheim Bausche,Welzheim,Welzheim,WN,"72, 5",Bus,263,1,9.6019158,48.8584426
de:08119:6660,BBW,Schelmenholz BBW,Winnenden,Schelmenholz,WN,"43, 3",Bus,"332, 334",2,9.3867988,48.8673242
de:08117:43,Bebelstraße,Geisl.(St) Bebelstraße,Geislingen an der Steige,Geislingen (Steige),GP,7,Bus; Nachtbus,"963, 965, 965A, 966, 966A, N96",6,9.8168902,48.6165051
de:08118:7416,Beerhaldenstraße,Enzweihingen Beerhaldenstr.,Vaihingen an der Enz,Enzweihingen,LB,"46, 56, 3, 4",Bus,"503, 595",2,8.9802565,48.9147507
de:08115:7004,Beethovenstraße,Herrenberg Beethovenstraße,Herrenberg,Herrenberg,BB,"68, 5",Bus; Ruftaxi,"782, RT782",2,8.8799779,48.5938774
de:08116:4231,Beethovenstraße,Plochingen Beethovenstraße,Plochingen,Plochingen,ES,"41, 3",Bus; Nachtbus,"107, 141, 149, N16",4,9.4272788,48.7086094
de:08111:212,Beethovenstraße,Beethovenstraße,Stuttgart,Stuttgart,S,"20, 1",Bus; Nachtbus; Stadtbahn,"U2, U9, 91, N2",4,9.1333344,48.7772188
de:08119:7550,Beethovenstraße,Bittenfeld Beethovenstr.,Waiblingen,Bittenfeld,WN,"32, 34, 43, 44, 2, 3",Bus,201,1,9.3161078,48.8925834
de:08115:4589,Beethovenstraße,Merklingen Beethovenstr.,Weil der Stadt,Merklingen,BB,"56, 4",Bus,"663, 663A",2,8.8536993,48.7748395
de:08115:4821,Beethovenstraße,Neuweiler Beethovenstr.,Weil im Schönbuch,Neuweiler (Weil im Schönbuch),BB,"58, 68, 4, 5",Bus,"757, 760A, 761, 761A",4,9.0589411,48.6421693
de:08119:5287,Beethovenstraße,Unterw. Beethovenstraße,Weissach im Tal,Unterweissach,WN,"53, 63, 4, 5",Bus,365,1,9.4675155,48.9298804
de:08118:3312,Behindertenheim,Markgr. Behindertenheim,Markgröningen,Markgröningen,LB,"36, 46, 2, 3",Bus,"531, 532",2,9.1124675,48.9063612
de:08118:3519,Beihinger Platz,Freiberg (N) Beihinger Platz,Freiberg am Neckar,Freiberg (N),LB,"44, 3",Bus,"444A, 459",2,9.2050165,48.9384612
de:08118:3472,Beihinger Straße,Hoheneck Beihinger Str.,Ludwigsburg,Hoheneck,LB,"34, 44, 2, 3",Bus,444,1,9.2027525,48.9120193
de:08118:5569,Beihinger Straße,Pleidelsheim Beihinger Str.,Pleidelsheim,Pleidelsheim,LB,"55, 4",Bus,"444A, 459",2,9.2041763,48.9566357
de:08118:5593,Beilsteiner Straße,Oberstenfeld Beilsteiner Str.,Oberstenfeld,Oberstenfeld,LB,"65, 75, 5, 6",Bus,"460A, 463, 467, X46",4,9.3195922,49.0259446
de:08111:6267,Beilsteiner Straße,Beilsteiner Straße,Stuttgart,Stuttgart,S,"20, 1",Bus,53,1,9.1772486,48.8333885
de:08119:6838,Beim Kreisel,Endersbach Beim Kreisel,Weinstadt,Endersbach,WN,"42, 3",Bus,204,1,9.3655211,48.8148787
de:08119:6938,Beim Wasserturm,Backnang Beim Wasserturm,Backnang,Backnang,WN,"53, 54, 4",Bus,"362A, 367A",2,9.417808,48.9539276
de:08119:3632,Beim Wasserturm,Waiblingen Beim Wasserturm,Waiblingen,Waiblingen,WN,"32, 2",Bus,"207, 210",2,9.2992966,48.8224437
de:08425:2460,Beimerstetten,Beimerstetten,Beimerstetten,Beimerstetten,ULLA,,R-Bahn; SEV-Bus,"RE5, MEX16, MEX16E",3,9.976807,48.4813278
de:08115:2345,Belforter Platz,Leonberg Belforter Platz,Leonberg,Leonberg,BB,"46, 3",Bus; Nachtbus,"631, 631A, 632, 632A, 634, 643, 652, 653, 653A, 654, 660, N62",12,9.0137444,48.7979422
de:08116:5772,Bempflingen,Bempflingen,Bempflingen,Bempflingen,ES,"69, 5",Bus; R-Bahn,"RE6, MEX12, MEX18, 185, 187, 187A, 189A",7,9.27345,48.5723006
de:08118:1500,Benningen (N),Benningen (N),Benningen am Neckar,Benningen (N),LB,"44, 3",R-Bahn; S-Bahn; SEV-Bus,"S4, S24, MEX19, RE90, MEX90, S4E",6,9.2442991,48.9437977
de:08119:5396,Benzach,Beutelsbach Benzach,Weinstadt,Beutelsbach,WN,"42, 3",Bus,"114, 206, 206A, 209",4,9.372729,48.8100537
de:08119:5397,Benzach Bildungszentrum,Beutelsb. Benz. Bi.zentrum,Weinstadt,Beutelsbach,WN,"42, 3",Bus,"202, 206A, 209",3,9.3749095,48.8085179
de:08116:4353,Benzenhofweg,Kirchheim (T) Benzenhofweg,Kirchheim unter Teck,Kirchheim (T),ES,"61, 5",Bus; Ruftaxi,"163, 164, RT163",3,9.4724941,48.6502057
de:08115:7054,Benzstraße,Herrenberg Benzstraße,Herrenberg,Herrenberg,BB,"68, 5",Bus; Ruftaxi,"753, 783, RT783",3,8.8716812,48.599282
de:08119:6627,Benzstraße,Urbach Benzstraße,Urbach,Urbach,WN,"52, 62, 4, 5",Bus,"243, 243A, 248, 249",4,9.5585023,48.8087268
de:08117:3305,Bereitschaftspolizei,Göpp. Bereitschaftspolizei,Göppingen,Göppingen,GP,"5, 6",Bus; Nachtbus,"981, 981A, 983, 983A, 984, 984A, N94, N98",8,9.6708954,48.6897227
de:08111:77,Bergfriedhof,Bergfriedhof,Stuttgart,Stuttgart,S,"10, 1",Nachtbus; Stadtbahn,"U4, U9, N6",3,9.2056166,48.789063
de:08111:6007,Berghaustraße,Berghaustraße,Stuttgart,Stuttgart,S,"20, 38, 1, 2",Bus,"82, 86",2,9.105392,48.7145527
de:08111:146,Bergheimer Hof,Bergheimer Hof,Stuttgart,Stuttgart,S,"20, 1",Nachtbus; Stadtbahn,"U6, U16, N3",3,9.1011839,48.8042557
de:08115:4189,Bergsiedlung,Dachtel Bergsiedlung,Aidlingen,Dachtel,BB,"57, 58, 67, 4, 5",Bus; Ruftaxi,"744, 763, 763A, 764, RT763",5,8.8529351,48.6820095
de:08115:4190,Bergsiedlung (Keplerstraße),Dachtel Bergsiedl. (Keplerstr),Aidlingen,Dachtel,BB,"57, 58, 67, 4, 5",Bus,"744, 763, 763A",3,8.8483283,48.6830647
de:08111:90,Bergstaffelstraße,Bergstaffelstraße,Stuttgart,Stuttgart,S,"20, 31, 1, 2",Bus; Nachtbus,"61, N7",2,9.2660526,48.7655499
de:08117:1044,Bergstr./Hallenbad,Eisl.(F) Bergstr./Hallenbad,Eislingen/Fils,Eislingen (F),GP,6,Bus,"940, 972",2,9.7057975,48.6922927
de:08116:4118,Bergstraße,Sulzgries Bergstraße,Esslingen am Neckar,Sulzgries,ES,"31, 2",Bus; Nachtbus,"109, 132, N12",3,9.2946254,48.7551479
de:08118:2626,Bergstraße,Korntal Bergstraße,Korntal-Münchingen,Korntal,LB,"20, 36, 1, 2",Bus,"90, 612",2,9.1263238,48.8297869
de:08117:4040,Bergstraße,Rechberghausen Bergstraße,Rechberghausen,Rechberghausen,GP,5,Bus; Ruftaxi,"915, 934A, RT915",3,9.6349409,48.7316521
de:08236:3604,Bergstraße,Mühlhsn. (W) Bergstraße,Tiefenbronn,Mühlhausen (W),PFLA,,Bus,"666, 666A",2,8.8253341,48.8097175
de:08116:4246,Bergstraße,Wernau (N) Bergstraße,Wernau (Neckar),Wernau (N),ES,"41, 51, 3, 4",Bus,"145, 146",2,9.4225019,48.6849946
de:08235:1500,Bergwald,Gechingen Bergwald,Gechingen,Gechingen,CW,"67, 5",Bus,"744, 763, 763A",3,8.8367435,48.6916907
de:08118:7433,Berliner Platz,Ludwigsburg Berliner Platz,Ludwigsburg,Ludwigsburg,LB,"34, 2",Bus,"433, 433A",2,9.2070656,48.8927863
de:08111:55,Berliner Platz (Hohe Straße),Berliner Platz (Hohe Straße),Stuttgart,Stuttgart,S,"10, 1",Bus; Nachtbus; Stadtbahn,"U1, U2, U4, U9, 43, N2, N10",7,9.1685734,48.7771365
de:08111:6073,Berliner Platz (Liederhalle),Berliner Platz (Liederhalle),Stuttgart,Stuttgart,S,"10, 1",Bus; Nachtbus; Stadtbahn,"U1, U4, U9, U11, 41, 43, N2",7,9.1678564,48.7783695
de:08119:5330,Berliner Ring,Backnang Berliner Ring,Backnang,Backnang,WN,"53, 54, 4",Bus,"360, 361, 368, 390, N36",5,9.4305059,48.957073
de:08118:6947,Berliner Straße,Asperg Berliner Str.,Asperg,Asperg,LB,"34, 36, 45, 46, 2, 3",Bus,"433, 536A",2,9.1320708,48.9016823
de:08115:4700,Berliner Straße,Böblingen Berliner Straße,Böblingen,Böblingen,BB,"48, 3",Bus; SEV-Bus,"R46E, 703, 721, 721A",4,9.0069754,48.6798362
de:08115:4513,Berliner Straße,Herrenberg Berliner Straße,Herrenberg,Herrenberg,BB,"68, 5",Bus; Nachtbus; Ruftaxi,"774, 774A, 780, X77, N70, RT780",6,8.8559782,48.5954866
de:08118:5657,Berliner Straße,Aldingen Berliner Straße,Remseck am Neckar,Aldingen,LB,"32, 34, 2",Bus,"402A, 403, 533",3,9.2448879,48.8634154
de:08115:3184,Berliner Straße,Maichingen Berliner Str.,Sindelfingen,Maichingen,BB,"47, 48, 3",Bus,"702, 704, 704A, 705, 705A, 748, 748A",7,8.9689834,48.7185092
de:08119:4956,Bernhalden,Oppenw. Bernhalden,Oppenweiler,Oppenweiler,WN,"63, 64, 73, 74, 5",Bus; Ruftaxi,"385, 386, RT386",3,9.457559,49.0214689
de:08111:2037,Bernhäuser Straße,Bernhäuser Straße,Stuttgart,Stuttgart,S,"20, 39, 1, 2",Bus,"65, 74, 76, 816A",4,9.2154784,48.6991386
de:08118:7579,Bertha-Benz-Straße,Ensingen Bertha-Benz-Str.,Vaihingen an der Enz,Ensingen,LB,"56, 66, 4, 5",Bus,"578, 590",2,8.9568244,48.9547774
de:08116:4170,Berufliches Schulzentrum,Zell Berufliches Schulzentrum,Esslingen am Neckar,Zell (Esslingen),ES,"31, 41, 2, 3",Bus,"102, 103, 104, 114A, 115, 138",6,9.3549396,48.7221372
de:08111:2582,Berufsbildungszentrum,Berufsbildungszentrum,Stuttgart,Stuttgart,S,"20, 1",Bus; Nachtbus,"80, N10",2,9.1228905,48.7239774
de:08118:3574,Berufsschule,Pattonville Berufsschule,Remseck am Neckar,Pattonville,LB,"34, 2",Bus; Nachtbus,"402, 402A, 412, 427A, 533, N43, N48",7,9.2227814,48.8756987
de:08117:118,Berufsschulzentrum,Geisl.(St) Berufsschulzentrum,Geislingen an der Steige,Geislingen (Steige),GP,7,Bus; SEV-Bus,"962, 964, MEX16E",3,9.8203771,48.6282877
de:08119:3650,Berufsschulzentrum,Waiblingen Berufsschulzentrum,Waiblingen,Waiblingen,WN,"32, 2",Bus; Nachtbus,"204, 205, 431, N24",4,9.303248,48.8318124
de:08117:9896,Berufsschulzentrum Öde,Göppingen BSZ Öde,Göppingen,Göppingen,GP,"5, 6",Bus,"916A, 980A, 984A, 997",4,9.6350305,48.7020841
de:08119:4906,Berwinkel,Sulzb.(M) Berwinkel,Sulzbach an der Murr,Sulzbach (M),WN,"63, 64, 73, 74, 5",Bus; Ruftaxi,"372, 380, 380A, RT380",4,9.5162929,49.0330812
de:08118:5583,Besigheim,Besigheim,Besigheim,Besigheim,LB,"55, 65, 4, 5",Bus; R-Bahn; SEV-Bus,"RE8, MEX12, MEX18, 459, 464, 560, 568, 568A, 574, 574A, RE8E, MEX18E",12,9.1365619,48.9976588
de:08118:6524,Besigheimer Straße,Ottmarsheim Besigheimer Straße,Besigheim,Ottmarsheim,LB,"55, 65, 4, 5",Bus,"568, 568A",2,9.1986018,49.0140418
de:08118:5706,Besigheimer Straße,Freudental Besigh. Str.,Freudental,Freudental,LB,"55, 56, 65, 66, 4, 5",Bus; Nachtbus,"554, 567, 568, 568A, 572, N57, 666",7,9.0637253,49.0101134
de:08118:5535,Besigheimer Straße,Eglosheim Besigheimer Str.,Ludwigsburg,Eglosheim,LB,"34, 2",Bus,424,1,9.1717244,48.9105412
de:08118:5703,Besigheimer Straße,Löchgau Besigheimer Str.,Löchgau,Löchgau,LB,"55, 4",Bus,"554A, 568, 568A",3,9.1101949,49.0012929
de:08111:36,Beskidenstraße,Beskidenstraße,Stuttgart,Stuttgart,S,"20, 1",Nachtbus; Stadtbahn,"U1, U16, N6",3,9.2537907,48.8101707
de:08119:5058,Bethel,Welzheim Bethel,Welzheim,Welzheim,WN,"72, 5",Bus,"263, 266A",2,9.6311218,48.8693648
de:08116:4129,Betriebshof,Wäldenbronn Betriebshof,Esslingen am Neckar,Wäldenbronn,ES,"31, 2",Bus; Nachtbus,"110, 132, N12, X20",4,9.3167157,48.7622562
de:08116:4286,Betriebshof,Sirnau Betriebshof,Esslingen am Neckar,Sirnau,ES,"31, 2",Bus; Nachtbus,"104, 121, N13",3,9.3449269,48.7167632
de:08115:6734,Betriebshof,Warmbronn Betriebshof,Leonberg,Warmbronn,BB,"36, 37, 46, 47, 2, 3",Bus,632,1,8.9929913,48.7633223
de:08236:3018,Betriebshof Engel,Mühlacker Betriebshof Engel,Mühlacker,Mühlacker,PFLA,,Bus,707,1,8.8686434,48.9557902
de:08118:9411,Betriebshof LVL,Ludwigsburg Betriebshof LVL,Ludwigsburg,Ludwigsburg,LB,,Bus,431,1,9.1861948,48.8875616
de:08235:1030,Betriebshof Volz,Hirsau Betr.hof Volz,Calw,Hirsau,CW,,Bus,880,1,8.7340725,48.7378652
de:08116:5900,Bettlinger Forum,Großbettl. Bettlinger Forum,Großbettlingen,Großbettlingen,ES,"60, 70, 5, 6",Bus; Nachtbus,"185, 185A, 187A, 195, X19, N85",6,9.3083373,48.5935429
de:08116:4090,Betz,Köngen Betz,Köngen,Köngen,ES,"51, 4",Bus; Nachtbus,"151, N15",2,9.3588055,48.679096
de:08117:1045,Beundstraße,Eislingen (F) Beundstr.,Eislingen/Fils,Eislingen (F),GP,6,Bus,"940, 972",2,9.709338,48.6919652
de:08116:3933,Beurener Steige,Beuren Beurener Steige,Beuren,Beuren (ES),ES,"70, 71, 5",Bus,179,1,9.4129698,48.5723246
de:08116:4280,Beurener Straße,Owen Beurener Straße,Owen,Owen,ES,"71, 5, 6",Bus,"177, 177A",2,9.4508571,48.5859142
de:08119:3711,Beutelsbach,Beutelsbach,Weinstadt,Beutelsbach,WN,"42, 3",S-Bahn; SEV-Bus,"S2, S2E",2,9.3855159,48.8103893
de:08117:2103,Bezgenriet Bezirksamt,Göpp. Bezgenr. Bezirksamt,Göppingen,Bezgenriet,GP,5,Bus; Nachtbus,"920, 920A, 921, 921A, N92",5,9.615753,48.6676394
de:08117:2104,Bezgenriet Schopflenberg,Göpp. Bezgenr. Schopflenb.,Göppingen,Bezgenriet,GP,5,Bus; Nachtbus,"921, 921A, N92",3,9.6053233,48.6707882
de:08117:3311,Bezgenrieter Straße,Heiningen Bezgenrieter Str.,Heiningen,Heiningen (GP),GP,"5, 6",Bus; Nachtbus,"983, 983A, 984, 984A, N98",5,9.6462178,48.6601524
de:08136:7821,Bezirksamt,Wißgoldingen Bezirksamt,Waldstetten,Wißgoldingen,AA,6,Bus; Ruftaxi,"971, RT971",2,9.811974,48.7309263
de:08416:10204,BG Unfallklinik,Tübingen BG Unfallklinik,Tübingen,Tübingen,TÜ,,Bus,826A,1,9.0361473,48.5341769
de:08119:3661,Biegel,Backnang Biegel,Backnang,Backnang,WN,"53, 54, 4",Bus,"360, 361, 362, 368, 370, 390, N36",7,9.4308794,48.9481334
de:08111:375,Bieler Weg,Bieler Weg,Stuttgart,Stuttgart,S,"20, 1",Nachtbus,N7,1,9.2149609,48.7369979
de:08118:1400,Bietigheim,Bietigheim,Bietigheim-Bissingen,Bietigheim,LB,"45, 3",Bus; Nachtbus; R-Bahn; S-Bahn; SEV-Bus,"S5, RE1, RE8, MEX12, MEX17, MEX18, 542, 544, 551, 551A, 554, 554A, 556, 558, 559, 561, 564, 566, 567, 567A, 572, N52, N56, N57, N58, S5E, RE8E, MEX17E, MEX18E",29,9.1372174,48.9479499
de:08118:6719,Bietigheimer Straße,Metterz. Bietigheimer Str.,Bietigheim-Bissingen,Metterzimmern,LB,"45, 3",Bus; Nachtbus,"551, 551A, N52",3,9.1076976,48.9588798
de:08118:5566,Bietigheimer Straße,Großingersh. Bietigheimer Str.,Ingersheim,Großingersheim,LB,"55, 4",Bus,"444, 446, 446A, 567, 567A, N44",6,9.1785413,48.9589624
de:08118:5505,Bietigheimer Straße,Ludw. Bietigheimer Straße,Ludwigsburg,Ludwigsburg,LB,"34, 2",Bus,"429, 430",2,9.1903657,48.9014477
de:08118:6999,Bietigheimer Straße,Murr Bietigheimer Str.,Murr,Murr,LB,"55, 4",Bus,"460, 567",2,9.2508821,48.9580091
de:08118:5669,Bietigheimer Straße,Kleinsachsh. Bietigh. Str.,Sachsenheim,Kleinsachsenheim,LB,"55, 56, 65, 66, 4, 5",Bus; Nachtbus,"551, 551A, N52",3,9.0751592,48.9692556
de:08111:15,Bihlplatz,Bihlplatz,Stuttgart,Stuttgart,S,"10, 1",Stadtbahn,"U1, U14",2,9.1514184,48.7597781
de:08115:2320,Bildstöckle,Leonberg Bildstöckle,Leonberg,Leonberg,BB,"46, 3",Bus; Nachtbus,"X2, 92, N63",3,9.0212878,48.8039029
de:08118:5860,Bildungszentrum,Markgr. Bildungszentrum,Markgröningen,Markgröningen,LB,"36, 46, 2, 3",Bus,"531A, 532A, 533, 533A",4,9.0827085,48.9014498
de:08118:5590,Bildungszentrum,Aldingen Bildungszentrum,Remseck am Neckar,Aldingen,LB,"32, 34, 2",Bus,"402, 402A",2,9.2604126,48.8714563
de:08116:3893,Bildungszentrum,Weilheim (T) Bildungszentrum,Weilheim an der Teck,Weilheim (T),ES,"71, 5, 6",Bus,"173A, 174, 175A, 177, 177A, 920A",6,9.5325192,48.6203308
de:08119:5995,Bildungszentrum,Cottenw. Bildungszentrum,Weissach im Tal,Cottenweiler,WN,"53, 63, 4, 5",Bus,"365A, 382, 382A, 384",4,9.4882441,48.9213147
de:08235:7330,Bildungszentrum,Wildberg Bildungszentrum,Wildberg,Wildberg,CW,,Bus,"759, 775",2,8.7385213,48.6242008
de:08119:5307,Bildungszentrum II,Winnenden Bildungsz. II,Winnenden,Winnenden,WN,"43, 3",Bus,"331, 333, 334, 335, 336, 337, 337A",7,9.3993427,48.8695294
de:08118:7419,Bildungszentrum West,Ludwigsburg Bildungsz. West,Ludwigsburg,Ludwigsburg,LB,"34, 2",Bus,"421A, 422A, 425A, 427A, 433A",5,9.176571,48.899995
de:08119:5150,Bildäckerstraße,Hohenacker Bildäckerstr.,Waiblingen,Hohenacker,WN,"32, 43, 2, 3",Bus; Nachtbus,"201, 201A, N24",3,9.3208621,48.8620056
de:08118:3523,Bilfinger Straße,Freiberg (N) Bilfinger Str.,Freiberg am Neckar,Freiberg (N),LB,"44, 3",Bus,"444, 446, 446A, 564, N44",5,9.187129,48.9367382
de:08125:4684,Billensbach,Schmidhausen Billensbach,Beilstein,Schmidhausen (HN),HNLA,,Bus,644,1,9.3649465,49.0612563
de:08425:2578,Binsenstraße,Schalkstetten Binsenstr.,Amstetten,Schalkstetten,ULLA,7,Bus,957,1,9.9140762,48.6162059
de:08111:2557,Birkach Friedhof,Birkach Friedhof,Stuttgart,Stuttgart,S,"20, 1",Bus; Nachtbus,"65, 70, 74, 76, N8",5,9.208022,48.7192686
de:08111:2559,Birkach West,Birkach West,Stuttgart,Stuttgart,S,"20, 1",Bus,"65, 70, 71",3,9.2023142,48.7260591
de:08111:2545,Birkacher Straße,Birkacher Straße,Stuttgart,Stuttgart,S,"20, 1",Bus,65,1,9.2114922,48.7268429
de:08119:6683,Birkenallee (Bahnübergang),Plüd. Birkenallee (Bahnüberg.),Plüderhausen,Plüderhausen,WN,"62, 5",Bus,"243, 243A, 248",3,9.5920496,48.8007359
de:08111:2451,Birkenkopf,Birkenkopf,Stuttgart,Stuttgart,S,"10, 20, 1",Bus,92,1,9.1354093,48.764645
de:08236:3502,Birkenstraße,Friolzheim Birkenstraße,Friolzheim,Friolzheim,PFLA,,Bus,"653, 762, 763",3,8.8315705,48.8380075
de:08115:4857,Birkenstraße,Holzgerl. Birkenstraße,Holzgerlingen,Holzgerlingen,BB,"58, 4",Bus,"756, 757",2,9.0318033,48.6442484
de:08116:3835,Birkenweg,Altbach Birkenweg,Altbach,Altbach,ES,3,Bus,140,1,9.385069,48.7289915
de:08118:7429,Birkenweg,Bissingen Birkenweg,Bietigheim-Bissingen,Bissingen (LB),LB,"45, 3",Bus,556,1,9.092321,48.9437595
de:08117:104,Birkenweg,Geisl.(St) Birkenweg,Geislingen an der Steige,Geislingen (Steige),GP,7,Bus,963,1,9.8146101,48.6113504
de:08119:3721,Birkenweg,Waiblingen Birkenweg,Waiblingen,Waiblingen,WN,"32, 2",Bus,208,1,9.3183907,48.8398465
de:08119:5265,Birkenweißbuch,Vorderw. Birkenweißbuch,Berglen,Vorderweißbuch,WN,"53, 3, 4",Bus,"244, 244A",2,9.4885152,48.8512191
de:08118:3600,Birkhau,Affalterbach Birkhau,Affalterbach,Affalterbach,LB,"43, 3",Bus,"456, 456A",2,9.3433206,48.9233666
de:08111:2558,Birkheckenstraße,Birkheckenstraße,Stuttgart,Stuttgart,S,"20, 1",Bus; Nachtbus,"65, 70, 74, 76, N8",5,9.2076444,48.7232709
de:08117:10075,Birkhof,Deggingen Birkhof,Deggingen,Deggingen,GP,7,Bus; Nachtbus,"961, 966, 966A, 981A, 982, N96",6,9.728669,48.6017739
de:08119:6924,Birkhof,Kaisersbach Birkhof,Kaisersbach,Kaisersbach,WN,"72, 73, 5",Bus,257,1,9.6947447,48.9003638
de:08117:7414,Birkhöfe,Roßwälden Birkhöfe,Ebersbach an der Fils,Roßwälden,GP,4,Bus; Ruftaxi,"924, 924A, RT924",3,9.5120065,48.6868433
de:08111:6069,Bismarckplatz,Bismarckplatz,Stuttgart,Stuttgart,S,"10, 1",Bus; Nachtbus,"42, N10",2,9.1560866,48.7738629
de:08111:2261,Bismarckstaffel,Bismarckstaffel,Stuttgart,Stuttgart,S,"10, 1",Bus,92,1,9.1469859,48.7695856
de:08116:4005,Bismarckstraße,Esslingen (N) Bismarckstr.,Esslingen am Neckar,Esslingen (N),ES,"31, 2",Bus,"101, 115",2,9.321712,48.735301
de:08116:4332,Bismarckstraße,Kirchheim (T) Bismarckstraße,Kirchheim unter Teck,Kirchheim (T),ES,"61, 5",Bus; Ruftaxi,"161, RT161",2,9.4567744,48.6438036
de:08118:5645,Bissinger Straße,Untermberg Bissinger Str.,Bietigheim-Bissingen,Untermberg,LB,"45, 3",Bus; Nachtbus,"541, 544, 554, 554A, N56",5,9.0862789,48.9468485
de:08116:7821,Bissinger Straße,Ochsenwang Bissinger Str.,Bissingen an der Teck,Ochsenwang,ES,"71, 5",Bus,176,1,9.5108417,48.5770933
de:08118:5584,Bissinger Straße,Eglosheim Bissinger Straße,Ludwigsburg,Eglosheim,LB,"34, 2",Bus,426,1,9.1718111,48.9119618
de:08119:5152,Bittenfelder Straße,Hohenacker Bittenf. Str.,Waiblingen,Hohenacker,WN,"32, 43, 2, 3",Bus; Nachtbus,"201, 201A, N24",3,9.3174959,48.8684894
de:08115:6471,Blammerbergstraße,Weil der Stadt Blammerbergstr.,Weil der Stadt,Weil der Stadt,BB,"56, 4",Bus,665,1,8.8865394,48.7579707
de:08118:5597,Blattert,Murr Blattert,Murr,Murr,LB,"55, 4",Bus,"460, 460A, 461, N46",4,9.2521654,48.9579523
de:08117:2036,Bleichereistr./Fa. Frank,Uhingen Bleich.str./Fa.Frank,Uhingen,Uhingen,GP,"4, 5",Bus; Ruftaxi,"916A, 918, RT918",3,9.5679184,48.711859
de:08117:2037,Bleichereistraße/Bleicherei,Uhingen Bleich.str./Bleicherei,Uhingen,Uhingen,GP,"4, 5",Bus; Ruftaxi,"916A, 918, RT918",3,9.5719734,48.7111645
de:08111:265,Blick,Blick,Stuttgart,Stuttgart,S,"20, 1",Stadtbahn,U13,1,9.2421088,48.7931734
de:08115:2356,Blosenbergkirche,Leonberg Blosenbergkirche,Leonberg,Leonberg,BB,"46, 3",Bus,640,1,9.0241971,48.7959621
de:08116:6496,Blumen-/Wilhelmstraße,Reichenb.(F) Blumen-/Wilh.str.,Reichenbach an der Fils,Reichenbach (F),ES,"41, 51, 3, 4",Bus; Nachtbus,"142, 148, 262, N11",4,9.4662291,48.711021
de:08117:9007,Blumenstr./Stadthalle,Göpp. Blumenstr./Stadthalle,Göppingen,Göppingen,GP,"5, 6",Bus,"901A, 911A, 931A, 932A, 934A, 980A, 981A",7,9.6616677,48.7048567
de:08119:3606,Blumenstraße,Backnang Blumenstraße,Backnang,Backnang,WN,"53, 54, 4",Bus,"361, 369, 393, N36",4,9.4372718,48.9422465
de:08118:5568,Blumenstraße,Kleiningersheim Blumenstr.,Ingersheim,Kleiningersheim,LB,"55, 4",Bus,"444, 446, 446A, 567A",4,9.20028,48.9758497
de:08116:4508,Blumenstraße,Reichenbach (F) Blumenstraße,Reichenbach an der Fils,Reichenbach (F),ES,"41, 51, 3, 4",Bus; Nachtbus,"262, N11",2,9.465137,48.7134174
de:08116:4289,Blumenstraße,Unterensingen Blumenstraße,Unterensingen,Unterensingen,ES,"50, 51, 4",Bus; Nachtbus,"169, 184, N15",3,9.3569639,48.660649
de:08119:5144,Blumenstraße,Waiblingen Blumenstraße,Waiblingen,Waiblingen,WN,"32, 2",Bus; Nachtbus,"201, 204, 206, 207, 209, 211, N21, N24, N31",9,9.3099083,48.8295735
de:08118:5497,Blühendes Barock,Ludw. Blühendes Barock,Ludwigsburg,Ludwigsburg,LB,"34, 2",Bus; Nachtbus,"422, 422A, 425, 425A, 426, 431, 433, 433A, 443, N42, N43",11,9.1970417,48.8960951
de:08119:4914,Bodelschwinghschule,Murrh. Bodelschwinghschule,Murrhardt,Murrhardt,WN,"73, 5",Bus,"372, 377, 390, 390A",4,9.5561082,48.9845367
de:08116:4823,Bohnau,Kirchheim (T) Bohnau,Kirchheim unter Teck,Kirchheim (T),ES,"61, 5",Bus; Ruftaxi,"165, 171, RT165",3,9.4675301,48.634435
de:08116:3952,Bohnauhaus,Kirchheim (T) Bohnauhaus,Kirchheim unter Teck,Kirchheim (T),ES,"61, 5",Bus; Ruftaxi,"165, 171, RT165",3,9.4641129,48.6375873
de:08119:5080,Bohnreute,Kirchenkirnberg Bohnreute,Murrhardt,Kirchenkirnberg,WN,"73, 5",Bus,375,1,9.6761561,48.9469641
de:08117:3331,Boller Straße,Dürnau Boller Str.,Dürnau,Dürnau,GP,5,Bus; Nachtbus,"983, 983A, N98",3,9.6341484,48.6405526
de:08116:7934,Bolzplatz,Hohengehren Bolzplatz,Baltmannsweiler,Hohengehren,ES,"41, 42, 51, 52, 3, 4",Bus; Nachtbus,"106, 149, N16",3,9.455176,48.7629878
de:08118:5658,Bolzstraße,Bietigheim Bolzstraße,Bietigheim-Bissingen,Bietigheim,LB,"45, 3",Bus,"542, 551, 551A, 561",4,9.1399691,48.9603736
de:08118:5452,Bolzstraße,Kornwestheim Bolzstraße,Kornwestheim,Kornwestheim,LB,"34, 2",Bus,412,1,9.1756382,48.8557907
de:08116:4475,Bombach,Aich Bombach,Aichtal,Aich,ES,"49, 59, 3, 4",Bus; Nachtbus,"167, 808A, 809, 809A, X16, N89",6,9.2330343,48.6207522
de:08115:4510,Bondorf,Bondorf,Bondorf,Bondorf,BB,"77, 5",Bus; IC; R-Bahn; SEV-Bus,"RE4, RE14, RE40, RB41, SVG, IC, 778, RE14E, 7627, X27",10,8.8278748,48.5232727
de:08115:2815,Bonholz,Waldenbuch Bonholz,Waldenbuch,Waldenbuch,BB,"48, 58, 3, 4",Bus,"826, 826A, 828, X82",4,9.1317071,48.6289705
de:08119:5104,Bonholz Abzweig,Alfdorf Bonholz Abzw.,Alfdorf,Alfdorf,WN,"72, 5",Bus,"266, 266A, 268",3,9.7398051,48.841876
de:08116:2015,Bonlandener Straße,Bonlanden Bonlandener Straße,Filderstadt,Bonlanden,ES,"38, 39, 2",Bus; Nachtbus,"77, 805, 808, 816A, 818A, N89",6,9.2309981,48.6500272
de:08116:2101,Bonländer Straße,Echterdingen Bonländer Straße,Leinfelden-Echterdingen,Echterdingen,ES,"38, 2",Bus; Nachtbus,"76, 77, 818, 818A, N18",5,9.1675108,48.6829512
de:08111:6160,Bopser,Bopser,Stuttgart,Stuttgart,S,"10, 1",Nachtbus; Stadtbahn,"U5, U6, U7, U12, N8, N9, N10",7,9.1836966,48.7679411
de:08118:2302,Bopserwaldstraße,Gerlingen Bopserwaldstr.,Gerlingen,Gerlingen,LB,"36, 2",Bus; Nachtbus,"92, 638, N63",3,9.0499282,48.7887328
de:08111:2460,Borkumstraße (Neuw.-siedl.),Borkumstraße (Neuw.-siedl.),Stuttgart,Stuttgart,S,"20, 34, 36, 1, 2",Bus,"52, 612",2,9.1442898,48.8348554
de:08118:7474,Borsigstraße,Bissingen Borsigstraße,Bietigheim-Bissingen,Bissingen (LB),LB,"45, 3",Bus; Nachtbus,"542, 554, 554A, 556, 558, N56",6,9.1331887,48.9474601
de:08111:111,Borsigstraße,Borsigstraße,Stuttgart,Stuttgart,S,"20, 1",Nachtbus; Stadtbahn,"U6, U7, U13, U15, N4",5,9.1754833,48.8193902
de:08115:7835,Borsigstraße,Münklingen Borsigstraße,Weil der Stadt,Münklingen,BB,4,Bus; Nachtbus; Ruftaxi,"663, 663A, 666, 769, N61, RT663",6,8.8266481,48.7759891
de:08125:1485,Bosch,Abstatt Bosch,Abstatt,Abstatt,HNLA,,Bus,646,1,9.3008865,49.0779326
de:08115:4557,Bosch,Rutesheim Bosch,Rutesheim,Rutesheim,BB,"46, 56, 3, 4",Bus,"636, 637, 654, 655",4,8.9511115,48.8046862
de:08118:3321,Bosch,Schwieberdingen Bosch,Schwieberdingen,Schwieberdingen,LB,"36, 46, 2, 3",Bus,503,1,9.0839422,48.8808478
de:08118:6926,Bosch Tor IV,Schwieberd. Bosch Tor IV,Schwieberdingen,Schwieberdingen,LB,"36, 46, 2, 3",Bus,"504, 531, 534",3,9.092077,48.8856614
de:08117:512,Boschhof,Türkheim Boschhof,Geislingen an der Steige,Türkheim,GP,7,Bus,350,1,9.7906936,48.5839545
de:08119:3692,Boskopweg,Waiblingen Boskopweg,Waiblingen,Waiblingen,WN,"32, 2",Bus,208,1,9.3276196,48.8407918
de:08111:6503,Botnang,Botnang,Stuttgart,Stuttgart,S,"20, 1",Bus; Nachtbus; Stadtbahn,"U2, U9, 91, N2",4,9.1222082,48.778643
de:08111:2421,Botnang Freibad,Botnang Freibad,Stuttgart,Stuttgart,S,"20, 1",Bus,91,1,9.1330186,48.7864184
de:08111:6214,Botnanger Sattel,Botnanger Sattel,Stuttgart,Stuttgart,S,"10, 20, 1",Bus; Nachtbus,"40, 50, N2",3,9.1369859,48.7741211
de:08111:2260,Bottroper Straße,Bottroper Straße,Stuttgart,Stuttgart,S,"20, 1",Bus; Nachtbus; Stadtbahn,"U12, 56, N4",3,9.2100642,48.8209508
de:08118:3425,Bottwartalstraße,Hoheneck Bottwartalstr.,Ludwigsburg,Hoheneck,LB,"34, 44, 2, 3",Bus; Nachtbus,"427, 427A, 444, N41",4,9.2030523,48.9085838
de:08116:4215,Brahmsstraße,Kirchheim (T) Brahmsstraße,Kirchheim unter Teck,Kirchheim (T),ES,"61, 5",Bus; Ruftaxi,"144, 165, RT165",3,9.457571,48.6598342
de:08116:4001,Brandenburger Straße,Oberessl. Brandenburger Str.,Esslingen am Neckar,Oberesslingen,ES,"31, 2",Bus,138,1,9.3403725,48.7365872
de:08136:6538,Brandhof L 1080,Gschwend Brandhof L 1080,Gschwend,Gschwend,AA,6,Bus,257,1,9.7098493,48.9315557
de:08118:3332,Brauerei,Schwieberdingen Brauerei,Schwieberdingen,Schwieberdingen,LB,"36, 46, 2, 3",Bus,531A,1,9.0769816,48.8761228
de:08115:3298,Brauereiplatz,Magstadt Brauereiplatz,Magstadt,Magstadt,BB,"46, 47, 56, 3, 4",Bus,"745, 745A",2,8.9624575,48.7407366
de:08116:4176,Braungartweg,Zollberg Braungartweg,Esslingen am Neckar,Zollberg,ES,"31, 2",Bus,118,1,9.2926172,48.7255499
de:08119:5101,Brech,Pfahlbronn Brech,Alfdorf,Pfahlbronn,WN,"72, 5",Bus,268,1,9.6863635,48.8351658
de:08119:5102,Brech Kaiserlinde,Pfahlbr. Brech Kaiserlinde,Alfdorf,Pfahlbronn,WN,"72, 5",Bus,268,1,9.6955644,48.8316845
de:08117:4035,Breech Krzg. Rattenharz,Börtl. Breech Krzg. Rattenh.,Börtlingen,Börtlingen,GP,5,Bus; Ruftaxi,"934, 934A, RT934",3,9.626261,48.7704303
de:08117:4050,Breech Wendeplatte,Börtl. Breech Wendeplatte,Börtlingen,Börtlingen,GP,5,Bus; Ruftaxi,"934, 934A, RT934",3,9.6328865,48.7715361
de:08119:5132,Breitenf. Reinhold-Maier-Platz,Welzh. Breitenf. R.-Maier-Pl.,Welzheim,Welzheim,WN,"72, 5",Bus,"263, 266A",2,9.6257995,48.8579466
de:08119:5087,Breitenfürst Lorcher Straße,Welzh. Breit. Lorcher Str.,Welzheim,Welzheim,WN,"72, 5",Bus,266A,1,9.6257468,48.8559057
de:08119:5056,Breitenfürst Schulhaus,Breitenfürst Schulhaus,Welzheim,Welzheim,WN,"72, 5",Bus,263,1,9.6217886,48.8565026
de:08416:5206,Breitenholz Abzweig,Breitenholz Abzw.,Ammerbuch,Breitenholz,TÜ,,Bus; Nachtbus; Ruftaxi,"791, N80, RT791",3,8.9455116,48.5673533
de:08115:3137,Breitensteiner Straße,Böblingen Breitensteiner Str.,Böblingen,Böblingen,BB,"48, 3",Bus,"703, 705",2,9.0211647,48.6765881
de:08117:217,Breiter Weg,Böhmenkirch Breiter Weg,Böhmenkirch,Böhmenkirch,GP,7,Bus,950A,1,9.93715,48.6815322
de:08235:10208,Breiter Weg,Ebhausen Breiter Weg,Ebhausen,Ebhausen,CW,"88, 7",Bus,X77,1,8.6766605,48.5867695
de:08117:6013,Breitfelderhof,Ottenbach Breitfelderhof,Ottenbach,Ottenbach,GP,6,Bus; Ruftaxi,"941, 941A, RT941",3,9.7427549,48.7262679
de:08425:2455,Breitlinger Str./Pflegeheim,Beimerst. Breit. Str./Pflegeh.,Beimerstetten,Beimerstetten,ULLA,,Bus,46,1,9.985257,48.485995
de:08118:143,Breitwiesen,Gerlingen Breitwiesen,Gerlingen,Gerlingen,LB,"36, 2",Bus; Nachtbus; Stadtbahn,"U6, 635, N3",3,9.0825716,48.8024452
de:08118:6909,Breitwiesenhaus,Gerlingen Breitwiesenhaus,Gerlingen,Gerlingen,LB,"36, 2",Bus,635,1,9.0765112,48.800615
de:08111:81,Brendle (Großmarkt),Brendle (Großmarkt),Stuttgart,Stuttgart,S,"20, 1",Nachtbus; Stadtbahn,"U4, U9, N6, N7",4,9.2267448,48.7815416
de:08115:4543,Brennerstraße,Eltingen Brennerstraße,Leonberg,Eltingen,BB,"46, 3",Bus,"631, 631A, 632, 632A, 651",5,9.0036035,48.7936896
de:08125:4676,Breslauer Straße,Beilstein Breslauer Straße,Beilstein,Beilstein,HNLA,"75, 6",Bus,"460, 460A, N46, 644",4,9.321286,49.0383848
de:08115:3106,Breslauer Straße,Böblingen Breslauer Str.,Böblingen,Böblingen,BB,"48, 3",Bus; SEV-Bus,"R46E, 722, 723A, 763A",4,8.9973066,48.6814012
de:08118:6957,Breslauer Straße,Schwieberdingen Breslauer Str.,Schwieberdingen,Schwieberdingen,LB,"36, 46, 2, 3",Bus,"501, 504",2,9.0786248,48.8720932
de:08118:3021,Breslauer Straße/Kindergarten,Ditz. Breslauer Str./Kinderg.,Ditzingen,Ditzingen,LB,"36, 46, 2, 3",Bus,"622, 624",2,9.0653605,48.8300088
de:08119:6893,Bretzenacker,Bretzenacker,Berglen,Bretzenacker,WN,"53, 3, 4",Bus,338,1,9.4542951,48.8566646
de:08118:7608,Breuninger,Großsachsenheim Breuninger,Sachsenheim,Großsachsenheim,LB,"4, 5",Bus,544,1,9.0514949,48.9479935
de:08118:3448,Breuningerland,Ludw. Breuningerland,Ludwigsburg,Ludwigsburg,LB,"34, 45, 2, 3",Bus,"424, 536, 551",3,9.1506381,48.9210106
de:08115:6043,Breuningerland,Sindelf. Breuningerland,Sindelfingen,Sindelfingen,BB,"47, 48, 3",Bus,"702, 706, 711",3,9.0319644,48.7047681
de:08117:7608,Briefzentrum,Salach Briefzentrum,Salach,Salach,GP,6,Bus,972,1,9.7258059,48.6885533
de:08111:244,Brigachstraße,Brigachstraße,Stuttgart,Stuttgart,S,1,Bus,59,1,9.2231329,48.8230483
de:08118:3503,Brombergerhöfe,Hohenhasl. Brombergerhöfe,Sachsenheim,Hohenhaslach,LB,"66, 5",Bus,"571, 571A, 572",3,9.0017626,49.0089893
de:08115:4739,Bronntor,Herrenberg Bronntor,Herrenberg,Herrenberg,BB,"68, 5",Bus; Nachtbus; Ruftaxi,"753, 780, 783, N77, RT780, RT783",6,8.8682839,48.597048
de:08119:7529,Bronnwiesenweg,Rudersbg. Bronnwiesenweg,Rudersberg,Rudersberg,WN,"62, 72, 5",Bus,230,1,9.527617,48.8818451
de:08119:5077,Bruch,Kaisersbach Bruch,Kaisersbach,Kaisersbach,WN,"72, 73, 5",Bus,375,1,9.6420177,48.9356944
de:08119:4989,Bruch,Bruch,Weissach im Tal,Bruch (Weissach),WN,"53, 63, 4, 5",Bus,"382, 382A, 384",3,9.5185783,48.921434
de:08136:7000,Bruck,Lorch Bruck,Lorch,Lorch,AA,"62, 72, 5",Bus,268,1,9.7026534,48.8175234
de:08116:5780,Brucken,Brucken,Lenningen,Unterlenningen,ES,"61, 71, 5, 6",R-Bahn,RB64,1,9.4531089,48.573999
de:08116:4282,Brucken Untere Straße,Unterl. Brucken Untere Straße,Lenningen,Unterlenningen,ES,"61, 71, 5, 6",Bus,"177, 177A",2,9.4560864,48.5735735
de:08116:6722,Bruckenstraße,Wernau (N) Bruckenstraße,Wernau (Neckar),Wernau (N),ES,"41, 51, 3, 4",Bus,"145, 146, 168",3,9.4251985,48.6842743
de:08119:6622,Brucknerstraße,Murrhardt Brucknerstraße,Murrhardt,Murrhardt,WN,5,Bus,375,1,9.6054489,48.9760153
de:08117:11,Bruckwiesen,Geisl.(St) Bruckwiesen,Geislingen an der Steige,Geislingen (Steige),GP,7,Bus,"951, 951A",2,9.814961,48.6289287
de:08117:2062,Bruckwiesen Spielplatz,Hattenhofen Bruckw. Spielplatz,Hattenhofen,Hattenhofen,GP,5,Bus,922A,1,9.5755097,48.662641
de:08117:2051,Bruckwiesenstraße,Hattenh. Bruckwiesenstr.,Hattenhofen,Hattenhofen,GP,5,Bus,922A,1,9.5758835,48.6656606
de:08111:2206,Bruderhaus,Bruderhaus,Stuttgart,Stuttgart,S,"20, 36, 37, 1, 2",Bus,92,1,9.0825766,48.7560716
de:08116:4127,Brunnen,Wäldenbronn Brunnen,Esslingen am Neckar,Wäldenbronn,ES,"31, 2",Bus; Nachtbus,"110, 132, N12",3,9.317215,48.757309
de:08236:3309,Brunnen,Neubärental Brunnen,Wurmberg,Neubärental,PFLA,,Bus,763,1,8.7968217,48.8814652
de:08416:15203,Brunnenhalde,Unterjesingen Brunnenhalde,Tübingen,Unterjesingen,TÜ,,Nachtbus,N80,1,8.9768018,48.5269684
de:08415:28286,Brunnenstr.,Grafenberg Brunnenstr.,Grafenberg,Grafenberg,RT,6,Bus,185,1,9.3002742,48.5666491
de:08235:4060,Brunnenstraße,Monakam Brunnenstr.,Bad Liebenzell,Monakam,CW,,Bus,880,1,8.7504859,48.7893833
de:08117:122,Brunnenstraße,Gingen (F) Brunnenstr.,Gingen an der Fils,Gingen (F),GP,7,Bus,"951, 951A",2,9.7794825,48.6648035
de:08236:3506,Brunnenstraße,Heimsheim Brunnenstr.,Heimsheim,Heimsheim,PFLA,,Bus,653A,1,8.8622298,48.8047765
de:08236:3602,Brunnenstraße,Tiefenbronn Brunnenstraße,Tiefenbronn,Tiefenbronn,PFLA,,Bus,"652, 653A, 666, 666A",4,8.8073626,48.8240137
de:08118:3346,Brunnenwiesen,Spielberg Brunnenwiesen,Sachsenheim,Spielberg (Sachsenheim),LB,"66, 5",Bus,"571, 571A, 572",3,9.0001361,49.0158772
de:08117:82,Brückenstraße,Birenbach Brückenstr.,Birenbach,Birenbach,GP,5,Bus,"931A, 932A",2,9.6581602,48.7483916
de:08117:86,Brückenstraße,Gingen (F) Brückenstr.,Gingen an der Fils,Gingen (F),GP,7,Bus,"951, 951A",2,9.7740637,48.6664408
de:08118:3499,Brückenstraße,Hessigheim Brückenstraße,Hessigheim,Hessigheim,LB,4,Bus,N44,1,9.1904169,48.9935448
de:08118:3572,Brückenstraße,Aldingen Brückenstraße,Remseck am Neckar,Aldingen,LB,"32, 34, 2",Stadtbahn,U12,1,9.2580439,48.8667767
de:08119:3696,Brückenstraße,Winnenden Brückenstr.,Winnenden,Winnenden,WN,"43, 3",Bus,332,1,9.3902434,48.873823
de:08117:3234,Brückenweg,Gruibingen Brückenweg,Gruibingen,Gruibingen,GP,7,Bus; Nachtbus; Ruftaxi,"966A, 981, 981A, 983A, N96, RTN99",6,9.6409375,48.5980965
de:08116:4128,Brückle,Wäldenbronn Brückle,Esslingen am Neckar,Wäldenbronn,ES,"31, 2",Bus; Nachtbus,"110, 132, N12",3,9.3172559,48.759485
de:08235:4020,Brühl,Bad Liebenzell Brühl,Bad Liebenzell,Bad Liebenzell,CW,,Bus,880,1,8.7326228,48.7754502
de:08235:1050,Brühl,Calw Brühl,Calw,Calw,CW,6,Bus,670.2,1,8.7386918,48.7174359
de:08116:4347,Brühl,Lindorf Brühl,Kirchheim unter Teck,Lindorf,ES,"61, 5",Bus; Ruftaxi,"163, 164, RT163",3,9.4149973,48.6477118
de:08116:4249,Brühl,Wernau (N) Brühl,Wernau (Neckar),Wernau (N),ES,"41, 51, 3, 4",Bus,168,1,9.4261424,48.6818698
de:08116:3930,Brühl (Freilichtmuseum),Beuren Brühl (Freilichtmuseum),Beuren,Beuren (ES),ES,"70, 71, 5",Bus,199,1,9.4109972,48.5730421
de:08116:2902,Brühlsiedlung,Neuhausen (F) Brühlsiedlung,Neuhausen auf den Fildern,Neuhausen (F),ES,"30, 39, 2, 3",Bus; Nachtbus,"73, 120, 121, 816A, 817, N19",6,9.2785256,48.6769895
de:08115:7011,Brühlstraße,Deckenpfronn Brühlstraße,Deckenpfronn,Deckenpfronn,BB,"67, 5",Bus; Nachtbus; Ruftaxi,"773, N77, RT759, 759",4,8.8305856,48.6525013
de:08118:5567,Brühlstraße,Großing. Brühlstraße,Ingersheim,Großingersheim,LB,"55, 4",Bus,"444, 446, 446A, 567A, N44",5,9.1834364,48.9644668
de:08118:3465,Brühlstraße,Möglingen Brühlstraße,Möglingen,Möglingen,LB,"34, 36, 2",Bus,"508, 533, 533A, 536",4,9.1263479,48.8878049
de:08115:7020,Brühlstraße,Mötzingen Brühlstraße,Mötzingen,Mötzingen,BB,"77, 5",Bus,7627,1,8.7754159,48.5324901
de:08115:4600,Brühlstraße 22,Magstadt Brühlstr. 22,Magstadt,Magstadt,BB,"46, 47, 56, 3, 4",Bus,"745, 745A",2,8.9604152,48.7444588
de:08135:1625,Brünnele,Steinheim am Albuch Brünnele,Steinheim am Albuch,Steinheim am Albuch,HDH,,Bus,35,1,10.060213,48.6917685
de:08118:5534,Brünner Straße,Ludwigsburg Brünner Str.,Ludwigsburg,Ludwigsburg,LB,"34, 2",Bus,"421, 421A, 433, 433A",4,9.2135266,48.8888719
de:08111:124,Bubenbad,Bubenbad,Stuttgart,Stuttgart,S,"10, 1",Nachtbus; Stadtbahn,"U15, N7",2,9.1947504,48.7734622
de:08115:4786,Buch,Holzgerlingen Buch,Holzgerlingen,Holzgerlingen,BB,"58, 4",R-Bahn; SEV-Bus,"RB46, R46E",2,9.0246703,48.6267326
de:08118:5477,Buch Berliner Straße,Bietigheim Buch Berliner Str.,Bietigheim-Bissingen,Bietigheim,LB,"45, 3",Bus,"551, 551A",2,9.1446397,48.9416913
de:08118:5679,Buch Breslauer Straße,Bietigheim Buch Breslauer Str.,Bietigheim-Bissingen,Bietigheim,LB,"45, 3",Bus,"551, 551A",2,9.1477495,48.940851
de:08118:5678,Buch Buchschule,Bietigh. Buch Buchschule,Bietigheim-Bissingen,Bietigheim,LB,"45, 3",Bus,"551, 551A",2,9.1519476,48.9432734
de:08118:3385,Buch Buchzentrum,Bietigheim Buch Buchzentrum,Bietigheim-Bissingen,Bietigheim,LB,"45, 3",Bus; Nachtbus,"559, N58",2,9.1462645,48.946482
de:08118:5675,Buch Gröninger Weg,Bietigh. Buch Grön. Weg,Bietigheim-Bissingen,Bietigheim,LB,"45, 3",Bus; Nachtbus,"551, 551A, 559, N58",4,9.1421359,48.9444639
de:08118:5680,Buch Posener Straße,Bietigheim Buch Posener Str.,Bietigheim-Bissingen,Bietigheim,LB,"45, 3",Bus,"551, 551A",2,9.1503108,48.9391842
de:08118:5676,Buch Sonderschule,Bietigheim Buch Sonderschule,Bietigheim-Bissingen,Bietigheim,LB,"45, 3",Bus,"551, 551A",2,9.1468211,48.9454022
de:08118:5681,Buch Sucystraße,Bietigheim Buch Sucystr.,Bietigheim-Bissingen,Bietigheim,LB,"45, 3",Bus,"551, 551A",2,9.1520335,48.9401171
de:08119:6781,Buchengehren,Pfahlbronn Buchengehren,Alfdorf,Pfahlbronn,WN,"72, 5",Bus,269,1,9.7124899,48.8735393
de:08119:6782,Buchengehren Sägmühle,Pfahlbr. Bucheng. Sägmühle,Alfdorf,Pfahlbronn,WN,"72, 5",Bus,269,1,9.7139187,48.864745
de:08118:5883,Buchenrain,Ochsenbach Buchenrain,Sachsenheim,Ochsenbach,LB,"66, 5",Bus,"571, 571A, 572",3,8.9784379,49.0221068
de:08119:5293,Buchenstraße,Steinach Buchenstraße,Berglen,Steinach (Berglen),WN,"53, 3, 4",Bus,"245, 331, 336",3,9.4535308,48.8429724
de:08119:5222,Buchenweg,Schorndorf Buchenweg,Schorndorf,Schorndorf,WN,"52, 4",Bus,242,1,9.5319546,48.7894919
de:08119:3725,Buchenweg,Waiblingen Buchenweg,Waiblingen,Waiblingen,WN,"32, 2",Bus,208,1,9.3233766,48.8377105
de:08115:7027,Buchhaldenschule,Aidlingen Buchhaldenschule,Aidlingen,Aidlingen,BB,"57, 58, 4",Bus,"763A, 768, 768A",3,8.8923529,48.678294
de:08119:5403,Buchhaldenstraße,Schnait Buchhaldenstr.,Weinstadt,Schnait,WN,"42, 3",Bus; Ruftaxi,"206, 206A, RT206",3,9.404901,48.7898111
de:08111:6200,Buchrain Friedhof,Buchrain Friedhof,Stuttgart,Stuttgart,S,"20, 1",Bus,84,1,9.0816512,48.7306686
de:08117:18,Buchsteiner,Gingen (F) Buchsteiner,Gingen an der Fils,Gingen (F),GP,7,Bus,"951, 951A",2,9.7832213,48.6564059
de:08111:2187,Buchwald,Buchwald,Stuttgart,Stuttgart,S,"10, 1",Bus,45,1,9.2116798,48.771409
de:08111:299,Budapester Platz,Budapester Platz,Stuttgart,Stuttgart,S,"10, 1",Stadtbahn,U12,1,9.1856844,48.7904548
de:08119:5262,Buhlbronn,Buhlbronn,Schorndorf,Buhlbronn,WN,"52, 4",Bus,"234, 244, 244A",3,9.5182802,48.8438681
de:08235:10544,Bulacher Weg,Wildberg Bulacher Weg,Wildberg,Wildberg,CW,,Bus,"759, 775",2,8.743859,48.6228549
de:08116:4330,Bulkesweg,Kirchheim (T) Bulkesweg,Kirchheim unter Teck,Kirchheim (T),ES,"61, 5",Bus; Ruftaxi,"161, RT161",2,9.4620301,48.6383151
de:08235:1175,Bundesstraße,Neuhengstett Bundesstraße,Althengstett,Neuhengstett,CW,"5, 6",Bus,670.2,1,8.7897597,48.734383
de:08116:2994,Bunsenstr.,Oberensingen Bunsenstr.,Nürtingen,Oberensingen,ES,"50, 60, 4, 5",Bus,169,1,9.3308105,48.6427241
de:08119:5423,Buocher Straße,Breuningsweiler Buocher Str.,Winnenden,Breuningsweiler,WN,"43, 3",Bus,"331, 333",2,9.415041,48.8525235
de:08118:7448,Buolweg,Enzweihingen Buolweg,Vaihingen an der Enz,Enzweihingen,LB,"46, 56, 3, 4",Bus,"503, 595",2,8.9827524,48.9170621
de:08116:4123,Burg,Esslingen (N) Burg,Esslingen am Neckar,Esslingen (N),ES,"31, 2",Bus; Nachtbus,"110, N12",2,9.3117222,48.746632
de:08118:3593,Burgermühle,Bönnigheim Burgermühle,Bönnigheim,Bönnigheim,LB,"65, 5",Bus; Nachtbus,"554, 554A, 574, 574A, N57",5,9.1077628,49.0393853
de:08118:5638,Burgfeldschule,Großsachsh. Burgfeldschule,Sachsenheim,Großsachsenheim,LB,"55, 56, 65, 66, 4, 5",Bus; Nachtbus,"544, 562, 566, 578, N56",5,9.0633313,48.9585442
de:08119:5960,Burggymnasium,Schorndorf Burggymnasium,Schorndorf,Schorndorf,WN,"52, 4",Bus; SEV-Bus,"RB61E, 242A, 244A, 245, 247",5,9.5284296,48.8037161
de:08115:4629,Burghaldenfriedhof,Sindelf. Burghaldenfriedhof,Sindelfingen,Sindelfingen,BB,"47, 48, 3",Bus,708,1,9.0137606,48.7112554
de:08118:5561,Burghaldenstraße,Poppenweiler Burghaldenstr.,Ludwigsburg,Poppenweiler,LB,"34, 44, 2, 3",Bus; Nachtbus,"430, 430A, 433, 433A, N43",5,9.2622653,48.9128522
de:08111:2470,Burgholzhof,Burgholzhof,Stuttgart,Stuttgart,S,"20, 1",Bus; Nachtbus,"52, 57, N5",3,9.1915719,48.81753
de:08111:245,Burgholzstraße,Burgholzstraße,Stuttgart,Stuttgart,S,1,Bus,59,1,9.2095926,48.8221476
de:08118:2303,Burgklinge,Gerlingen Burgklinge,Gerlingen,Gerlingen,LB,"36, 2",Bus,638,1,9.0666734,48.7933463
de:08119:5345,Burgplatz,Backnang Burgplatz,Backnang,Backnang,WN,"53, 54, 4",Bus,"360, 362, 366, N36",4,9.4349731,48.944755
de:08118:5700,Burgplatz,Bönnigheim Burgplatz,Bönnigheim,Bönnigheim,LB,"65, 5",Bus; Nachtbus,"554, 574, N57, 666",4,9.0906714,49.0422146
de:08135:1610,Burgstall,Sontheim i Stubental Burgstall,Steinheim am Albuch,Sontheim i Stubental,HDH,,Bus,35,1,10.0679755,48.6747455
de:08117:2157,Burgstall,Uhingen Burgstall,Uhingen,Uhingen,GP,"4, 5",Bus; Ruftaxi,"922, 922A, RT922",3,9.5796873,48.698986
de:08119:7500,Burgstall (M),Burgstall (M),Burgstetten,Burgstall (Burgstetten),WN,"54, 4",Bus; Nachtbus; R-Bahn; S-Bahn; SEV-Bus,"S4, MEX19, RE90, MEX90, 455, 477, N30, S4E",8,9.3697356,48.9285183
de:08119:3471,Burgstaller Straße,Erbstetten Burgstaller Str.,Burgstetten,Erbstetten,WN,"54, 4",Bus; Nachtbus,"455, 477, N30",3,9.3885586,48.9254889
de:08119:3528,Burgstaller Straße,Kirchberg (M) Burgstaller Str.,Kirchberg an der Murr,Kirchberg (M),WN,"54, 55, 4",Bus; Nachtbus,"455, N30",2,9.348187,48.9441868
de:08116:2145,Burgstraße,Echterdingen Burgstraße,Leinfelden-Echterdingen,Echterdingen,ES,"38, 2",Bus; Nachtbus,"814, 828, X82, N18",4,9.1695196,48.6906818
de:08119:6698,Burgstraße,Urbach Burgstraße,Urbach,Urbach,WN,"52, 62, 4, 5",Bus,"243A, 249",2,9.5771037,48.8185537
de:08116:4011,Burgunderstraße,Mettingen Burgunderstr.,Esslingen am Neckar,Mettingen,ES,"31, 2",Bus,"101, 102, 115",3,9.2796382,48.7453566
de:08119:5310,Burgunderweg,Hanweiler Burgunderweg,Winnenden,Hanweiler,WN,"43, 3",Bus,"332, 334",2,9.389809,48.8547788
de:08119:5992,Burkhardshof,Birkmannsw. Burkhardshof,Winnenden,Birkmannsweiler,WN,"43, 3",Bus,"336, 337A",2,9.4212381,48.8683993
de:08115:3151,Burkhardtsmühle,Waldenbuch Burkhardtsmühle,Waldenbuch,Waldenbuch,BB,"38, 48, 58, 2, 3",Bus,"809A, 815",2,9.1707055,48.6358524
de:08116:4432,Burrenhof,Erkenbrechtsweiler Burrenhof,Erkenbrechtsweiler,Erkenbrechtsweiler,ES,"70, 71, 5",Bus,191,1,9.4119268,48.5373915
de:08119:5060,Busbahnhof,Welzheim Busbahnhof,Welzheim,Welzheim,WN,"72, 5",Bus,"257, 263, 264, 266, 266A, 330, 375",7,9.6307039,48.87407
de:08119:7509,Bushof Abzweig,Sulzbach (M) Bushof Abzw.,Sulzbach an der Murr,Sulzbach (M),WN,"63, 64, 73, 74, 5",Bus; Ruftaxi,"380A, RT380",2,9.5391023,49.0240927
de:08111:2432,Bußbachstraße,Bußbachstraße,Stuttgart,Stuttgart,S,"20, 1",Bus,66,1,9.2199708,48.7479142
de:08125:14632,Bustadt Mitte,Ilsfeld Bustadt Mitte,Ilsfeld,Ilsfeld,HNLA,,Bus,646,1,9.2626288,49.0623802
de:08125:14633,Bustadt Ost,Ilsfeld Bustadt Ost,Ilsfeld,Ilsfeld,HNLA,,Bus,646,1,9.2637632,49.0646975
de:08119:7538,Butzberg,Grab Butzberg,Großerlach,Grab,WN,"73, 74, 5",Bus,377,1,9.5978442,49.0299536
de:08111:2520,Bächlenweg,Bächlenweg,Stuttgart,Stuttgart,S,"20, 31, 1, 2",Bus; Ruftaxi,"62, RT7",2,9.246778,48.7573468
de:08117:3378,Bäckerei Herb,Heiningen Bäckerei Herb,Heiningen,Heiningen (GP),GP,"5, 6",Bus; Nachtbus,"981, 981A, 983, 983A, 984, 984A, N94, N98",8,9.6511105,48.6606104
de:08117:7605,Bäckerei Staudenmayer,Salach Bäck. Staudenmayer,Salach,Salach,GP,6,Bus,"941A, N97",2,9.7344395,48.6863673
de:08116:4133,Bärenwiesen,Serach Bärenwiesen,Esslingen am Neckar,Serach,ES,"31, 2",Bus; Nachtbus,"111, 132, N12",3,9.3120152,48.7544186
de:08136:6100,Böbingen (R),Böbingen (R),Böbingen an der Rems,Böbingen (R),AA,,R-Bahn; SEV-Bus,"RE1, MEX13, XEV",3,9.9127856,48.8224975
de:08115:7100,Böblingen,Böblingen,Böblingen,Böblingen,BB,"48, 3",Bus; IC; Nachtbus; R-Bahn; Ruftaxi; S-Bahn; SEV-Bus,"S1, S60, S61, RE4, RE14, SVG, RB46, IC, R46E, 631, 701, 701A, 703, 704, 706, 707, 709, 709A, 717, 721, 721A, 722, 722A, 723, 723A, 725, 728, 743, 744, 760, 760A, 761, 763, 763A, 766, 769, X16, X76, N73, N74, N75, S1E, S6X, S60E, SXE, RT760, RT763, RT766, RT46",49,9.0045319,48.6878487
de:08119:4970,Böhringsweiler,Großerl. Böhringsweiler,Großerlach,Großerlach,WN,"73, 74, 5",Bus; Ruftaxi,"372, 380, RT380",3,9.5108896,49.0729398
de:08117:7673,Büchenbronn Forsthaus,Ebersb.(F) Büchenbr. Forsthaus,Ebersbach an der Fils,Ebersbach (F),GP,4,Bus,"916A, 917",2,9.5103501,48.7378922
de:08117:7638,Büchenbronn Gemeindehaus,Ebersb.(F) Büchenbr. Gemeindeh,Ebersbach an der Fils,Ebersbach (F),GP,4,Bus; Ruftaxi,"916A, 917, RT917",3,9.5067732,48.7323597
de:08117:7674,Büchenbronn Königseiche,Ebersb.(F) Büchenbr. Kgs-eiche,Ebersbach an der Fils,Ebersbach (F),GP,4,Bus,"916A, 917",2,9.5161604,48.7463462
de:08117:7672,Büchenbronn Siedlung,Ebersb.(F) Büchenbr. Siedlung,Ebersbach an der Fils,Ebersbach (F),GP,4,Bus; Ruftaxi,"916A, 917, RT917",3,9.5079022,48.7310867
de:08117:8012,Büchenbronner Straße,Ebersb.(F) Büchenbronner Str.,Ebersbach an der Fils,Ebersbach (F),GP,4,Bus,"916A, 917",2,9.5185421,48.7175056
de:08111:69,Büchsenstraße,Büchsenstraße,Stuttgart,Stuttgart,S,"10, 1",Bus,47,1,9.1745612,48.7774962
de:08119:3689,Bühl,Korb Bühl,Korb,Korb,WN,"32, 42, 43, 2, 3",Bus; Nachtbus,"209, N31",2,9.367823,48.8372802
de:08115:4787,Bühlenstraße,Holzgerlingen Bühlenstr.,Holzgerlingen,Holzgerlingen,BB,"58, 4",Bus,"756, 757",2,9.0265386,48.645167
de:08115:4710,Bühler Straße,Böblingen Bühler Straße,Böblingen,Böblingen,BB,"48, 3",Bus; Nachtbus,"703, 721, 721A, N73",4,8.9989499,48.6676606
de:08119:4950,Bühlfeld,Oppenweiler Bühlfeld,Oppenweiler,Oppenweiler,WN,"63, 64, 5",Bus,"390, 390A, 391",3,9.456418,48.9804696
de:08115:4817,Bühläcker,Schönaich Bühläcker,Schönaich,Schönaich,BB,"58, 4",Bus,"757, 760A, 761, 761A",4,9.0651012,48.6523276
de:08119:3771,Bühläckerstraße,Stetten i. R. Bühläckerstr.,Kernen im Remstal,Stetten (i. R.),WN,2,Bus,219,1,9.3465308,48.7957658
de:08119:2376,Bühnerstraße,Schmiden Bühnerstraße,Fellbach,Schmiden,WN,"20, 32, 1, 2",Bus,"58, 60, 205, 214",4,9.2631861,48.8337544
de:08117:2045,Bünzwanger Straße,Albershausen Bünzwanger Str.,Albershausen,Albershausen,GP,"4, 5",Bus,"911, 911A, 916A",3,9.5627556,48.6961025
de:08117:9825,Bünzwanger Straße,Uhingen Bünzwanger Straße,Uhingen,Uhingen,GP,"4, 5",Bus; Nachtbus,"916, 916A, N91",3,9.5739708,48.7051925
de:08119:5272,Bürg,Bürg,Winnenden,Bürg,WN,"43, 3",Bus,"337, 337A",2,9.4407172,48.8824442
de:08117:2061,Bürgerhaus,Aichelberg Bürgerhaus,Aichelberg,Aichelberg (GP),GP,5,Bus; Nachtbus; Ruftaxi,"920, 920A, 924, 924A, N92, RT920",6,9.5653361,48.6354438
de:08116:2980,Bürgerhaus,Beuren Bürgerhaus,Beuren,Beuren (ES),ES,"70, 71, 5",Bus,"177, 178, 179, 199",4,9.4077111,48.5688452
de:08115:3215,Bürgerhaus,Maichingen Bürgerhaus,Sindelfingen,Maichingen,BB,"47, 48, 3",Bus,"702, 704, 704A, 705, 705A, 748A, 769",7,8.9658282,48.7220064
de:08116:4114,Bürgerhaus RSKN,Rüdern Bürgerhaus RSKN,Esslingen am Neckar,Rüdern,ES,"31, 2",Bus; Nachtbus,"109, 132, N12",3,9.2910196,48.7618834
de:08236:2901,Bürgersaal,Wiernsheim Bürgersaal,Wiernsheim,Wiernsheim,PFLA,,Bus,"653, 653A, 660, 765",4,8.8484131,48.8906084
de:08116:4382,Bürgersee,Kirchheim (T) Bürgersee,Kirchheim unter Teck,Kirchheim (T),ES,"61, 5",Bus,"166, 166A",2,9.4079947,48.6342839
de:08235:4590,Bürgerzentrum,Bad Liebenzell Bürgerzentrum,Bad Liebenzell,Bad Liebenzell,CW,,Bus,880,1,8.7323579,48.7715289
de:08116:6970,Bürgerzentrum,Hegenlohe Bürgerzentrum,Lichtenwald,Hegenlohe,ES,"51, 4",Bus; Nachtbus,"262, N11",2,9.4795645,48.738717
de:08119:3627,Bürgerzentrum (Hallenbad),Waibl. Bürgerz. (Hallenbad),Waiblingen,Waiblingen,WN,"32, 2",Bus; Nachtbus,"201, 204, 207, 209, N21, N24, N31",7,9.322494,48.831814
de:08119:5145,Bürgerzentrum (Remsbrücke),Waibl. Bürgerz. (Remsbrücke),Waiblingen,Waiblingen,WN,"32, 2",Bus; Nachtbus,"201, 208, N24",3,9.3208409,48.8331585
de:08136:7202,Bürglesrain,Mutlangen Bürglesrain,Mutlangen,Mutlangen,AA,,Bus,"266A, 268",2,9.7939839,48.8296903
de:08111:2590,Büsnauer Platz,Büsnauer Platz,Stuttgart,Stuttgart,S,"20, 36, 37, 1, 2",Bus; Nachtbus,"81, 91, N1",3,9.080309,48.7498145
de:08115:4602,Büsnauer Straße 41,Warmbronn Büsnauer Str. 41,Leonberg,Warmbronn,BB,"36, 37, 46, 47, 2, 3",Bus; Nachtbus,"631, 631A, 632, 632A, 747, N63",6,8.9932497,48.763637
de:08115:4601,Büsnauer Straße 6,Warmbronn Büsnauer Str. 6,Leonberg,Warmbronn,BB,"36, 37, 46, 47, 2, 3",Bus; Nachtbus,"631, 631A, 632, 632A, 747, N63",6,8.9903934,48.7628455
de:08117:65,Cafe Brunnengarten,Wiesenst. Cafe Brunnengarten,Wiesensteig,Wiesensteig,GP,"6, 7",Bus; Linientaxi,"966, 966A, 967, 981, 981A, LT967",6,9.6292324,48.5638988
